timestamp,GLOBAL_POSITION_INT.time_boot_ms,GLOBAL_POSITION_INT.lat,GLOBAL_POSITION_INT.lon,GLOBAL_POSITION_INT.alt,GLOBAL_POSITION_INT.relative_alt,GLOBAL_POSITION_INT.vx,GLOBAL_POSITION_INT.vy,GLOBAL_POSITION_INT.vz,GLOBAL_POSITION_INT.hdg
0.10000000,100,0,0,0,0,0,0,0,0
0.22500000,225,0,0,0,0,0,0,0,0
0.35000000,350,0,0,0,0,0,0,0,0
0.47500000,475,0,0,0,0,0,0,0,0
0.60000000,600,0,0,0,0,0,0,0,0
0.72500000,725,0,0,0,0,0,0,0,0
0.85000000,850,0,0,0,0,0,0,0,0
0.97500000,975,0,0,0,0,0,0,0,0
1.10000000,1100,0,0,0,0,0,0,0,0
1.22500000,1225,0,0,0,0,0,0,0,0
1.35000000,1350,0,0,0,0,0,0,0,0
1.47500000,1475,0,0,0,0,0,0,0,0
1.60000000,1600,0,0,0,0,0,0,0,0
1.72500000,1725,0,0,0,0,0,0,0,0
1.85000000,1850,0,0,0,0,0,0,0,0
1.97500000,1975,0,0,0,0,0,0,0,0
2.10000000,2100,0,0,0,0,0,0,0,0
2.22500000,2225,0,0,0,0,0,0,0,0
2.35000000,2350,0,0,0,0,0,0,0,0
2.47500000,2475,0,0,0,0,0,0,0,0
2.60000000,2600,0,0,0,0,0,0,0,0
2.72500000,2725,0,0,0,0,0,0,0,0
2.85000000,2850,0,0,0,0,0,0,0,0
2.97500000,2975,0,0,0,0,0,0,0,0
3.10000000,3100,0,0,0,0,0,0,0,0
3.22500000,3225,0,0,0,0,0,0,0,0
3.35000000,3350,0,0,0,0,0,0,0,0
3.47500000,3475,0,0,0,0,0,0,0,0
3.60000000,3600,0,0,0,0,0,0,0,0
3.72500000,3725,0,0,0,0,0,0,0,0
3.85000000,3850,0,0,0,0,0,0,0,0
3.97500000,3975,0,0,0,0,0,0,0,0
4.10000000,4100,0,0,0,0,0,0,0,0
4.22500000,4225,0,0,0,0,0,0,0,0
4.35000000,4350,0,0,0,0,0,0,0,0
4.47500000,4475,0,0,0,0,0,0,0,0
4.60000000,4600,0,0,0,0,0,0,0,0
4.72500000,4725,0,0,0,0,0,0,0,0
4.85000000,4850,0,0,0,0,0,0,0,0
4.97500000,4975,0,0,0,0,0,0,0,0
5.10000000,5100,0,0,0,0,0,0,0,0
5.22500000,5225,0,0,0,0,0,0,0,0
5.35000000,5350,0,0,0,0,0,0,0,35900
5.47500000,5475,0,0,0,0,0,0,0,35900
5.60000000,5600,0,0,0,0,0,0,0,35900
5.72500000,5725,0,0,0,0,0,0,0,35900
5.85000000,5850,0,0,0,0,0,0,0,35900
5.97500000,5975,0,0,0,0,0,0,0,35900
6.10000000,6100,0,0,0,0,0,0,0,35900
6.22500000,6225,0,0,0,0,0,0,0,35900
6.35000000,6350,0,0,0,0,0,0,0,35900
6.47500000,6475,0,0,0,0,0,0,0,35900
6.60000000,6600,0,0,0,0,0,0,0,35900
6.72500000,6725,0,0,0,0,0,0,0,35900
6.85000000,6850,0,0,0,0,0,0,0,35900
6.97500000,6975,0,0,0,0,0,0,0,35900
7.10000000,7100,0,0,0,0,0,0,0,35900
7.22500000,7225,0,0,0,0,0,0,0,35900
7.35000000,7350,0,0,0,0,0,0,0,35900
7.47500000,7475,0,0,0,0,0,0,0,35900
7.60000000,7600,0,0,0,0,0,0,0,35900
7.72500000,7725,0,0,0,0,0,0,0,35900
7.85000000,7850,0,0,0,0,0,0,0,35900
7.97500000,7975,0,0,0,0,0,0,0,35900
8.10000000,8100,0,0,0,0,0,0,0,35900
8.22500000,8225,0,0,0,0,0,0,0,35900
8.35000000,8350,0,0,0,0,0,0,0,35900
8.47500000,8475,0,0,0,0,0,0,0,35900
8.60000000,8600,0,0,0,0,0,0,0,35900
8.72500000,8725,0,0,0,0,0,0,0,35900
8.85000000,8850,0,0,0,0,0,0,0,35900
8.97500000,8975,0,0,0,0,0,0,0,35900
9.10000000,9100,0,0,0,0,0,0,0,35900
9.22500000,9225,0,0,0,0,0,0,0,35900
9.35000000,9350,0,0,0,0,0,0,0,35900
9.47500000,9475,0,0,0,0,0,0,0,35900
9.60000000,9600,0,0,0,0,0,0,0,35900
9.72500000,9725,0,0,0,0,0,0,0,35900
9.85000000,9850,0,0,0,0,0,0,0,35900
9.97500000,9975,0,0,0,0,0,0,0,35900
10.10000000,10100,0,0,0,0,0,0,0,35900
10.22500000,10225,0,0,0,0,0,0,0,35900
10.35000000,10350,0,0,0,0,0,0,0,35900
10.47500000,10475,0,0,0,0,0,0,0,35900
10.60000000,10600,0,0,0,0,0,0,0,35900
10.72500000,10725,0,0,0,0,0,0,0,35900
10.85000000,10850,0,0,0,0,0,0,0,35900
10.97500000,10975,0,0,0,0,0,0,0,35900
11.10000000,11100,0,0,0,0,0,0,0,35900
11.22500000,11225,0,0,0,0,0,0,0,35900
11.35000000,11350,0,0,0,0,0,0,0,35900
11.47500000,11475,0,0,0,0,0,0,0,35900
11.60000000,11600,0,0,0,0,0,0,0,35900
11.72500000,11725,0,0,0,0,0,0,0,35900
11.85000000,11850,0,0,0,0,0,0,0,35900
11.97500000,11975,0,0,0,0,0,0,0,35900
12.10000000,12100,0,0,0,0,0,0,0,35900
12.22500000,12225,0,0,0,0,0,0,0,35900
12.35000000,12350,0,0,0,0,0,0,0,35900
12.47500000,12475,0,0,0,0,0,0,0,35900
12.60000000,12600,0,0,0,0,0,0,0,35900
12.72500000,12725,0,0,0,0,0,0,0,35900
12.85000000,12850,0,0,0,0,0,0,0,35900
12.97500000,12975,0,0,0,0,0,0,0,35900
13.10000000,13100,0,0,0,0,0,0,0,35900
13.22500000,13225,0,0,0,0,0,0,0,35900
13.35000000,13350,0,0,0,0,0,0,0,35900
13.47500000,13475,0,0,0,0,0,0,0,35900
13.60000000,13600,0,0,0,0,0,0,0,35900
13.72500000,13725,0,0,0,0,0,0,0,35900
13.85000000,13850,0,0,0,0,0,0,0,35900
13.97500000,13975,0,0,0,0,0,0,0,35900
14.10000000,14100,0,0,0,0,0,0,0,35900
14.22500000,14225,0,0,0,0,0,0,0,35900
14.35000000,14350,0,0,0,0,0,0,0,35900
14.47500000,14475,0,0,0,0,0,0,0,35900
14.60000000,14600,0,0,0,0,0,0,0,35900
14.72500000,14725,0,0,0,0,0,0,0,35900
14.85000000,14850,0,0,0,0,0,0,0,35900
14.97500000,14975,0,0,0,0,0,0,0,35900
15.10000000,15100,0,0,0,0,0,0,0,35900
15.22500000,15225,0,0,0,0,0,0,0,35900
15.35000000,15350,0,0,0,0,0,0,0,35900
15.47500000,15475,0,0,0,0,0,0,0,35900
15.60000000,15600,0,0,0,0,0,0,0,35900
15.72500000,15725,0,0,0,0,0,0,0,35900
15.85000000,15850,0,0,0,0,0,0,0,35900
15.97500000,15975,0,0,0,0,0,0,0,35900
16.10000000,16100,0,0,0,0,0,0,0,35900
16.22500000,16225,0,0,0,0,0,0,0,35900
16.35000000,16350,0,0,0,0,0,0,0,35900
16.47500000,16475,0,0,0,0,0,0,0,35900
16.60000000,16600,0,0,0,0,0,0,0,35900
16.72500000,16725,0,0,0,0,0,0,0,35900
16.85000000,16850,0,0,0,0,0,0,0,35900
16.97500000,16975,0,0,0,0,0,0,0,35900
17.10000000,17100,0,0,0,0,0,0,0,35900
17.22500000,17225,0,0,0,0,0,0,0,35900
17.35000000,17350,0,0,0,0,0,0,0,35900
17.47500000,17475,0,0,0,0,0,0,0,35900
17.60000000,17600,0,0,0,0,0,0,0,35900
17.72500000,17725,0,0,0,0,0,0,0,35900
17.85000000,17850,0,0,0,0,0,0,0,35900
17.97500000,17975,0,0,0,0,0,0,0,35900
18.10000000,18100,0,0,0,0,0,0,0,35900
18.22500000,18225,0,0,0,0,0,0,0,35900
18.35000000,18350,0,0,0,0,0,0,0,35900
18.47500000,18475,0,0,0,0,0,0,0,35900
18.60000000,18600,0,0,0,0,0,0,0,35900
18.72500000,18725,0,0,0,0,0,0,0,35900
18.85000000,18850,0,0,0,0,0,0,0,35900
18.97500000,18975,0,0,0,0,0,0,0,35900
19.10000000,19100,0,0,0,0,0,0,0,35900
19.22500000,19225,0,0,0,0,0,0,0,35900
19.35000000,19350,0,0,0,0,0,0,0,35900
19.47500000,19475,0,0,0,0,0,0,0,35900
19.60000000,19600,0,0,0,0,0,0,0,35900
19.72500000,19725,0,0,0,0,0,0,0,35900
19.85000000,19850,0,0,0,0,0,0,0,35900
19.97500000,19975,0,0,0,0,0,0,0,35900
20.10000000,20100,0,0,0,0,0,0,0,35900
20.22500000,20225,0,0,0,0,0,0,0,35900
20.35000000,20350,0,0,0,0,0,0,0,35900
20.47500000,20475,0,0,0,0,0,0,0,35900
20.60000000,20600,0,0,0,0,0,0,0,35900
20.72500000,20725,0,0,0,0,0,0,0,35900
20.85000000,20850,0,0,0,0,0,0,0,35900
20.97500000,20975,0,0,0,0,0,0,0,35900
21.10000000,21100,0,0,0,0,0,0,0,35900
21.22500000,21225,0,0,0,0,0,0,0,35900
21.35000000,21350,0,0,0,0,0,0,0,35900
21.47500000,21475,0,0,0,0,0,0,0,35900
21.60000000,21600,0,0,0,0,0,0,0,35900
21.72500000,21725,0,0,0,0,0,0,0,35900
21.85000000,21850,0,0,0,0,0,0,0,35900
21.97500000,21975,0,0,0,0,0,0,0,35900
22.10000000,22100,0,0,0,0,0,0,0,35900
22.22500000,22225,0,0,0,0,0,0,0,35900
22.35000000,22350,0,0,0,0,0,0,0,35900
22.47500000,22475,0,0,0,0,0,0,0,35900
22.60000000,22600,0,0,0,0,0,0,0,35900
22.72500000,22725,0,0,0,0,0,0,0,35900
22.85000000,22850,0,0,0,0,0,0,0,35900
22.97500000,22975,0,0,0,0,0,0,0,35900
23.10000000,23100,0,0,0,0,0,0,0,35900
23.22500000,23225,0,0,0,0,0,0,0,35900
23.35000000,23350,0,0,0,0,0,0,0,35900
23.47500000,23475,0,0,0,0,0,0,0,35900
23.60000000,23600,0,0,0,0,0,0,0,35900
23.72500000,23725,0,0,0,0,0,0,0,35900
23.85000000,23850,0,0,0,0,0,0,0,35900
23.97500000,23975,0,0,0,0,0,0,0,35900
24.10000000,24100,0,0,0,0,0,0,0,35900
24.22500000,24225,0,0,0,0,0,0,0,35900
24.35000000,24350,0,0,0,0,0,0,0,35900
24.47500000,24475,0,0,0,0,0,0,0,35900
24.60000000,24600,0,0,0,0,0,0,0,35900
24.72500000,24725,0,0,0,0,0,0,0,35900
24.85000000,24850,0,0,0,0,0,0,0,35900
24.97500000,24975,0,0,0,0,0,0,0,35900
25.10000000,25100,0,0,0,0,0,0,0,35900
25.22500000,25225,0,0,0,0,0,0,0,35900
25.35000000,25350,0,0,0,0,0,0,0,35900
25.47500000,25475,0,0,0,0,0,0,0,35900
25.60000000,25600,0,0,0,0,0,0,0,35900
25.72500000,25725,0,0,0,0,0,0,0,35900
25.85000000,25850,0,0,0,0,0,0,0,35900
25.97500000,25975,0,0,0,0,0,0,0,35900
26.10000000,26100,0,0,0,0,0,0,0,0
26.22500000,26225,0,0,0,0,0,0,0,0
26.35000000,26350,0,0,0,0,0,0,0,35900
26.47500000,26475,0,0,0,0,0,0,0,35900
26.60000000,26600,0,0,0,0,0,0,0,35900
26.72500000,26725,0,0,0,0,0,0,0,35900
26.85000000,26850,0,0,0,0,0,0,0,35900
26.97500000,26975,0,0,0,0,0,0,0,35900
27.10000000,27100,0,0,0,0,0,0,0,35900
27.22500000,27225,0,0,0,0,0,0,0,0
27.35000000,27350,0,0,0,0,0,0,0,0
27.47500000,27475,0,0,0,0,0,0,0,0
27.60000000,27600,0,0,0,0,0,0,0,0
27.72500000,27725,0,0,0,0,0,0,0,0
27.85000000,27850,0,0,0,0,0,0,0,0
27.97500000,27975,0,0,0,0,0,0,0,0
28.10000000,28100,0,0,0,0,0,0,0,35900
28.22500000,28225,0,0,0,0,0,0,0,35900
28.35000000,28350,0,0,0,0,0,0,0,35900
28.47500000,28475,0,0,0,0,0,0,0,35700
28.60000000,28600,0,0,0,0,0,0,0,35700
28.72500000,28725,0,0,0,0,0,0,0,35700
28.85000000,28850,0,0,0,0,0,0,0,35600
28.97500000,28975,0,0,0,0,0,0,0,35700
29.10000000,29100,0,0,0,0,0,0,0,35600
29.22500000,29225,0,0,0,0,0,0,0,35400
29.35000000,29350,0,0,0,0,0,0,0,35400
29.47500000,29475,0,0,0,0,0,0,0,35400
29.60000000,29600,0,0,0,0,0,0,0,35400
29.72500000,29725,0,0,0,0,0,0,0,35400
29.85000000,29850,0,0,0,0,0,0,0,35400
29.97500000,29975,0,0,0,0,0,0,0,35600
30.10000000,30100,0,0,0,0,0,0,0,35400
30.22500000,30225,0,0,0,0,0,0,0,35400
30.35000000,30350,0,0,0,0,0,0,0,35300
30.47500000,30475,0,0,0,0,0,0,0,35300
30.60000000,30600,0,0,0,0,0,0,0,35200
30.72500000,30725,0,0,0,0,0,0,0,35200
30.85000000,30850,0,0,0,0,0,0,0,35200
30.97500000,30975,0,0,0,0,0,0,0,35000
31.10000000,31100,0,0,0,0,0,0,0,35000
31.22500000,31225,0,0,0,0,0,0,0,35000
31.35000000,31350,0,0,0,0,0,0,0,35000
31.47500000,31475,0,0,0,0,0,0,0,35000
31.60000000,31600,0,0,0,0,0,0,0,35000
31.72500000,31725,0,0,0,0,0,0,0,34900
31.85000000,31850,0,0,0,0,0,0,0,34900
31.97500000,31975,0,0,0,0,0,0,0,34900
32.10000000,32100,0,0,0,0,0,0,0,34900
32.22500000,32225,0,0,0,0,0,0,0,34900
32.35000000,32350,0,0,0,0,0,0,0,34700
32.47500000,32475,0,0,0,0,0,0,0,34700
32.60000000,32600,0,0,0,0,0,0,0,34700
32.72500000,32725,0,0,0,0,0,0,0,34700
32.85000000,32850,0,0,0,0,0,0,0,34700
32.97500000,32975,0,0,0,0,0,0,0,34700
33.10000000,33100,0,0,0,0,0,0,0,34700
33.22500000,33225,0,0,0,0,0,0,0,34700
33.35000000,33350,0,0,0,0,0,0,0,34700
33.47500000,33475,0,0,0,0,0,0,0,34700
33.60000000,33600,0,0,0,0,0,0,0,34700
33.72500000,33725,0,0,0,0,0,0,0,34700
33.85000000,33850,0,0,0,0,0,0,0,34600
33.97500000,33975,0,0,0,0,0,0,0,34600
34.10000000,34100,0,0,0,0,0,0,0,34500
34.22500000,34225,0,0,0,0,0,0,0,34500
34.35000000,34350,0,0,0,0,0,0,0,34500
34.47500000,34475,0,0,0,0,0,0,0,34500
34.60000000,34600,0,0,0,0,0,0,0,34500
34.72500000,34725,0,0,0,0,0,0,0,34500
34.85000000,34850,0,0,0,0,0,0,0,34500
34.97500000,34975,0,0,0,0,0,0,0,34500
35.10000000,35100,0,0,0,0,0,0,0,34500
35.22500000,35225,0,0,0,0,0,0,0,34500
35.35000000,35350,0,0,0,0,0,0,0,34500
35.47500000,35475,0,0,0,0,0,0,0,34500
35.60000000,35600,0,0,0,0,0,0,0,34500
35.72500000,35725,0,0,0,0,0,0,0,34300
35.85000000,35850,0,0,0,0,0,0,0,34300
35.97500000,35975,0,0,0,0,0,0,0,34300
36.10000000,36100,0,0,0,0,0,0,0,34300
36.22500000,36225,0,0,0,0,0,0,0,34300
36.35000000,36350,0,0,0,0,0,0,0,34200
36.47500000,36475,0,0,0,0,0,0,0,34000
36.60000000,36600,0,0,0,0,0,0,0,34000
36.72500000,36725,0,0,0,0,0,0,0,34000
36.85000000,36850,0,0,0,0,0,0,0,34000
36.97500000,36975,0,0,0,0,0,0,0,34000
37.10000000,37100,0,0,0,0,0,0,0,34000
37.22500000,37225,0,0,0,0,0,0,0,34000
37.35000000,37350,0,0,0,0,0,0,0,34000
37.47500000,37475,0,0,0,0,0,0,0,34000
37.60000000,37600,0,0,0,0,0,0,0,33900
37.72500000,37725,0,0,0,0,0,0,0,33900
37.85000000,37850,0,0,0,0,0,0,0,33900
37.97500000,37975,0,0,0,0,0,0,0,33900
38.10000000,38100,0,0,0,0,0,0,0,33900
38.22500000,38225,0,0,0,0,0,0,0,33900
38.35000000,38350,0,0,0,0,0,0,0,33900
38.47500000,38475,0,0,0,0,0,0,0,33900
38.60000000,38600,0,0,0,0,0,0,0,33900
38.72500000,38725,0,0,0,0,0,0,0,33900
38.85000000,38850,0,0,0,0,0,0,0,33900
38.97500000,38975,0,0,0,0,0,0,0,33900
39.10000000,39100,0,0,0,0,0,0,0,33900
39.22500000,39225,0,0,0,0,0,0,0,33900
39.35000000,39350,0,0,0,0,0,0,0,33900
39.47500000,39475,0,0,0,0,0,0,0,33900
39.60000000,39600,0,0,0,0,0,0,0,33900
39.72500000,39725,0,0,0,0,0,0,0,33900
39.85000000,39850,0,0,0,0,0,0,0,33900
39.97500000,39975,0,0,0,0,0,0,0,33900
40.10000000,40100,0,0,0,0,0,0,0,33700
40.22500000,40225,0,0,0,0,0,0,0,33700
40.35000000,40350,0,0,0,0,0,0,0,33700
40.47500000,40475,0,0,0,0,0,0,0,33600
40.60000000,40600,0,0,0,0,0,0,0,33600
40.72500000,40725,0,0,0,0,0,0,0,33600
40.85000000,40850,0,0,0,0,0,0,0,33600
40.97500000,40975,0,0,0,0,0,0,0,33600
41.10000000,41100,0,0,0,0,0,0,0,33600
41.22500000,41225,0,0,0,0,0,0,0,33500
41.35000000,41350,0,0,0,0,0,0,0,33500
41.47500000,41475,0,0,0,0,0,0,0,33500
41.60000000,41600,0,0,0,0,0,0,0,33500
41.72500000,41725,0,0,0,0,0,0,0,33500
41.85000000,41850,0,0,0,0,0,0,0,33300
41.97500000,41975,0,0,0,0,0,0,0,33300
42.10000000,42100,0,0,0,0,0,0,0,33300
42.22500000,42225,0,0,0,0,0,0,0,33300
42.35000000,42350,0,0,0,0,0,0,0,33300
42.47500000,42475,0,0,0,0,0,0,0,33300
42.60000000,42600,0,0,0,0,0,0,0,33300
42.72500000,42725,0,0,0,0,0,0,0,33300
42.85000000,42850,0,0,0,0,0,0,0,33300
42.97500000,42975,0,0,0,0,0,0,0,33200
43.10000000,43100,0,0,0,0,0,0,0,33200
43.22500000,43225,0,0,0,0,0,0,0,33200
43.35000000,43350,0,0,0,0,0,0,0,33200
43.47500000,43475,0,0,0,0,0,0,0,33200
43.60000000,43600,0,0,0,0,0,0,0,33000
43.72500000,43725,0,0,0,0,0,0,0,33000
43.85000000,43850,0,0,0,0,0,0,0,33000
43.97500000,43975,0,0,0,0,0,0,0,33000
44.10000000,44100,0,0,0,0,0,0,0,33000
44.22500000,44225,0,0,0,0,0,0,0,33000
44.35000000,44350,0,0,0,0,0,0,0,33000
44.47500000,44475,0,0,0,0,0,0,0,33000
44.60000000,44600,0,0,0,0,0,0,0,32900
44.72500000,44725,0,0,0,0,0,0,0,32900
44.85000000,44850,0,0,0,0,0,0,0,32900
44.97500000,44975,0,0,0,0,0,0,0,32900
45.10000000,45100,0,0,0,0,0,0,0,32900
45.22500000,45225,0,0,0,0,0,0,0,32900
45.35000000,45350,0,0,0,0,0,0,0,32900
45.47500000,45475,0,0,0,0,0,0,0,32900
45.60000000,45600,0,0,0,0,0,0,0,32900
45.72500000,45725,0,0,0,0,0,0,0,32900
45.85000000,45850,0,0,0,0,0,0,0,32900
45.97500000,45975,0,0,0,0,0,0,0,32800
46.10000000,46100,0,0,0,0,0,0,0,32800
46.22500000,46225,0,0,0,0,0,0,0,32800
46.35000000,46350,0,0,0,0,0,0,0,32800
46.47500000,46475,0,0,0,0,0,0,0,32800
46.60000000,46600,0,0,0,0,0,0,0,32600
46.72500000,46725,0,0,0,0,0,0,0,32600
46.85000000,46850,0,0,0,0,0,0,0,32600
46.97500000,46975,0,0,0,0,0,0,0,32600
47.10000000,47100,0,0,0,0,0,0,0,32600
47.22500000,47225,0,0,0,0,0,0,0,32500
47.35000000,47350,0,0,0,0,0,0,0,32300
47.47500000,47475,0,0,0,0,0,0,0,32300
47.60000000,47600,0,0,0,0,0,0,0,32300
47.72500000,47725,0,0,0,0,0,0,0,32300
47.85000000,47850,0,0,0,0,0,0,0,32300
47.97500000,47975,0,0,0,0,0,0,0,32300
48.10000000,48100,0,0,0,0,0,0,0,32300
48.22500000,48225,0,0,0,0,0,0,0,32200
48.35000000,48350,0,0,0,0,0,0,0,32200
48.47500000,48475,0,0,0,0,0,0,0,32200
48.60000000,48600,0,0,0,0,0,0,0,32200
48.72500000,48725,0,0,0,0,0,0,0,32100
48.85000000,48850,0,0,0,0,0,0,0,32100
48.97500000,48975,0,0,0,0,0,0,0,32100
49.10000000,49100,0,0,0,0,0,0,0,32100
49.22500000,49225,0,0,0,0,0,0,0,32100
49.35000000,49350,0,0,0,0,0,0,0,32100
49.47500000,49475,0,0,0,0,0,0,0,32100
49.60000000,49600,0,0,0,0,0,0,0,32100
49.72500000,49725,0,0,0,0,0,0,0,31900
49.85000000,49850,0,0,0,0,0,0,0,31900
49.97500000,49975,0,0,0,0,0,0,0,31900
50.10000000,50100,0,0,0,0,0,0,0,31900
50.22500000,50225,0,0,0,0,0,0,0,31900
50.35000000,50350,0,0,0,0,0,0,0,31900
50.47500000,50475,0,0,0,0,0,0,0,31900
50.60000000,50600,0,0,0,0,0,0,0,31900
50.72500000,50725,0,0,0,0,0,0,0,31800
50.85000000,50850,0,0,0,0,0,0,0,31800
50.97500000,50975,0,0,0,0,0,0,0,31800
51.10000000,51100,0,0,0,0,0,0,0,31600
51.22500000,51225,0,0,0,0,0,0,0,31600
51.35000000,51350,0,0,0,0,0,0,0,31600
51.47500000,51475,0,0,0,0,0,0,0,31600
51.60000000,51600,0,0,0,0,0,0,0,31600
51.72500000,51725,0,0,0,0,0,0,0,31600
51.85000000,51850,0,0,0,0,0,0,0,31500
51.97500000,51975,0,0,0,0,0,0,0,31500
52.10000000,52100,0,0,0,0,0,0,0,31500
52.22500000,52225,0,0,0,0,0,0,0,31500
52.35000000,52350,0,0,0,0,0,0,0,31500
52.47500000,52475,0,0,0,0,0,0,0,31500
52.60000000,52600,0,0,0,0,0,0,0,31500
52.72500000,52725,0,0,0,0,0,0,0,31500
52.85000000,52850,0,0,0,0,0,0,0,31500
52.97500000,52975,0,0,0,0,0,0,0,31400
53.10000000,53100,0,0,0,0,0,0,0,31400
53.22500000,53225,0,0,0,0,0,0,0,31400
53.35000000,53350,0,0,0,0,0,0,0,31200
53.47500000,53475,0,0,0,0,0,0,0,31200
53.60000000,53600,0,0,0,0,0,0,0,31200
53.72500000,53725,0,0,0,0,0,0,0,31200
53.85000000,53850,0,0,0,0,0,0,0,31200
53.97500000,53975,0,0,0,0,0,0,0,31100
54.10000000,54100,0,0,0,0,0,0,0,31100
54.22500000,54225,0,0,0,0,0,0,0,31100
54.35000000,54350,0,0,0,0,0,0,0,31100
54.47500000,54475,0,0,0,0,0,0,0,31100
54.60000000,54600,0,0,0,0,0,0,0,31100
54.72500000,54725,0,0,0,0,0,0,0,30900
54.85000000,54850,0,0,0,0,0,0,0,30900
54.97500000,54975,0,0,0,0,0,0,0,30900
55.10000000,55100,0,0,0,0,0,0,0,30900
55.22500000,55225,0,0,0,0,0,0,0,30900
55.35000000,55350,0,0,0,0,0,0,0,30900
55.47500000,55475,0,0,0,0,0,0,0,30900
55.60000000,55600,0,0,0,0,0,0,0,30900
55.72500000,55725,0,0,0,0,0,0,0,30900
55.85000000,55850,0,0,0,0,0,0,0,31100
55.97500000,55975,0,0,0,0,0,0,0,31100
56.10000000,56100,0,0,0,0,0,0,0,31200
56.22500000,56225,0,0,0,0,0,0,0,31200
56.35000000,56350,0,0,0,0,0,0,0,31200
56.47500000,56475,0,0,0,0,0,0,0,31200
56.60000000,56600,0,0,0,0,0,0,0,31100
56.72500000,56725,0,0,0,0,0,0,0,31200
56.85000000,56850,0,0,0,0,0,0,0,31100
56.97500000,56975,0,0,0,0,0,0,0,30900
57.10000000,57100,0,0,0,0,0,0,0,30900
57.22500000,57225,0,0,0,0,0,0,0,31200
57.35000000,57350,0,0,0,0,0,0,0,31200
57.47500000,57475,0,0,0,0,0,0,0,31200
57.60000000,57600,0,0,0,0,0,0,0,31100
57.72500000,57725,0,0,0,0,0,0,0,31100
57.85000000,57850,0,0,0,0,0,0,0,31200
57.97500000,57975,0,0,0,0,0,0,0,31400
58.10000000,58100,0,0,0,0,0,0,0,31400
58.22500000,58225,0,0,0,0,0,0,0,31500
58.35000000,58350,0,0,0,0,0,0,0,31600
58.47500000,58475,0,0,0,0,0,0,0,31600
58.60000000,58600,0,0,0,0,0,0,0,31800
58.72500000,58725,0,0,0,0,0,0,0,31800
58.85000000,58850,0,0,0,0,0,0,0,32100
58.97500000,58975,0,0,0,0,0,0,0,32200
59.10000000,59100,0,0,0,0,0,0,0,32200
59.22500000,59225,0,0,0,0,0,0,0,32100
59.35000000,59350,0,0,0,0,0,0,0,31900
59.47500000,59475,0,0,0,0,0,0,0,31600
59.60000000,59600,0,0,0,0,0,0,0,31400
59.72500000,59725,0,0,0,0,0,0,0,31200
59.85000000,59850,0,0,0,0,0,0,0,31200
59.97500000,59975,0,0,0,0,0,0,0,31200
60.10000000,60100,0,0,0,0,0,0,0,31400
60.22500000,60225,0,0,0,0,0,0,0,31500
60.35000000,60350,0,0,0,0,0,0,0,31500
60.47500000,60475,0,0,0,0,0,0,0,31500
60.60000000,60600,0,0,0,0,0,0,0,31400
60.72500000,60725,0,0,0,0,0,0,0,31500
60.85000000,60850,0,0,0,0,0,0,0,31600
60.97500000,60975,0,0,0,0,0,0,0,31500
61.10000000,61100,0,0,0,0,0,0,0,31400
61.22500000,61225,0,0,0,0,0,0,0,31200
61.35000000,61350,0,0,0,0,0,0,0,31100
61.47500000,61475,0,0,0,0,0,0,0,31100
61.60000000,61600,0,0,0,0,0,0,0,30900
61.72500000,61725,0,0,0,0,0,0,0,30900
61.85000000,61850,0,0,0,0,0,0,0,30900
61.97500000,61975,0,0,0,0,0,0,0,31100
62.10000000,62100,0,0,0,0,0,0,0,31100
62.22500000,62225,0,0,0,0,0,0,0,31100
62.35000000,62350,0,0,0,0,0,0,0,30900
62.47500000,62475,0,0,0,0,0,0,0,30900
62.60000000,62600,0,0,0,0,0,0,0,30800
62.72500000,62725,0,0,0,0,0,0,0,30800
62.85000000,62850,0,0,0,0,0,0,0,30800
62.97500000,62975,0,0,0,0,0,0,0,30700
63.10000000,63100,0,0,0,0,0,0,0,30700
63.22500000,63225,0,0,0,0,0,0,0,30800
63.35000000,63350,0,0,0,0,0,0,0,30700
63.47500000,63475,0,0,0,0,0,0,0,30500
63.60000000,63600,0,0,0,0,0,0,0,30500
63.72500000,63725,0,0,0,0,0,0,0,30500
63.85000000,63850,0,0,0,0,0,0,0,30400
63.97500000,63975,0,0,0,0,0,0,0,30400
64.10000000,64100,0,0,0,0,0,0,0,30400
64.22500000,64225,0,0,0,0,0,0,0,30400
64.35000000,64350,0,0,0,0,0,0,0,30400
64.47500000,64475,0,0,0,0,0,0,0,30400
64.60000000,64600,0,0,0,0,0,0,0,30400
64.72500000,64725,0,0,0,0,0,0,0,30400
64.85000000,64850,0,0,0,0,0,0,0,30200
64.97500000,64975,0,0,0,0,0,0,0,30200
65.10000000,65100,0,0,0,0,0,0,0,30100
65.22500000,65225,0,0,0,0,0,0,0,30100
65.35000000,65350,0,0,0,0,0,0,0,30100
65.47500000,65475,0,0,0,0,0,0,0,30100
65.60000000,65600,0,0,0,0,0,0,0,30200
65.72500000,65725,0,0,0,0,0,0,0,30100
65.85000000,65850,0,0,0,0,0,0,0,30100
65.97500000,65975,0,0,0,0,0,0,0,30000
66.10000000,66100,0,0,0,0,0,0,0,30000
66.22500000,66225,0,0,0,0,0,0,0,29800
66.35000000,66350,0,0,0,0,0,0,0,29700
66.47500000,66475,0,0,0,0,0,0,0,29400
66.60000000,66600,0,0,0,0,0,0,0,29000
66.72500000,66725,0,0,0,0,0,0,0,28500
66.85000000,66850,0,0,0,0,0,0,0,28400
66.97500000,66975,0,0,0,0,0,0,0,28300
67.10000000,67100,0,0,0,0,0,0,0,28100
67.22500000,67225,0,0,0,0,0,0,0,28500
67.35000000,67350,0,0,0,0,0,0,0,28400
67.47500000,67475,0,0,0,0,0,0,0,28300
67.60000000,67600,0,0,0,0,0,0,0,28500
67.72500000,67725,0,0,0,0,0,0,0,29000
67.85000000,67850,0,0,0,0,0,0,0,29400
67.97500000,67975,0,0,0,0,0,0,0,29200
68.10000000,68100,0,0,0,0,0,0,0,29000
68.22500000,68225,0,0,0,0,0,0,0,29000
68.35000000,68350,0,0,0,0,0,0,0,29100
68.47500000,68475,0,0,0,0,0,0,0,29100
68.60000000,68600,0,0,0,0,0,0,0,29000
68.72500000,68725,0,0,0,0,0,0,0,29000
68.85000000,68850,0,0,0,0,0,0,0,28700
68.97500000,68975,0,0,0,0,0,0,0,28400
69.10000000,69100,0,0,0,0,0,0,0,28500
69.22500000,69225,0,0,0,0,0,0,0,28300
69.35000000,69350,0,0,0,0,0,0,0,27600
69.47500000,69475,0,0,0,0,0,0,0,27000
69.60000000,69600,0,0,0,0,0,0,0,26700
69.72500000,69725,0,0,0,0,0,0,0,26700
69.85000000,69850,0,0,0,0,0,0,0,26900
69.97500000,69975,0,0,0,0,0,0,0,27000
70.10000000,70100,0,0,0,0,0,0,0,27000
70.22500000,70225,0,0,0,0,0,0,0,26900
70.35000000,70350,0,0,0,0,0,0,0,26700
70.47500000,70475,0,0,0,0,0,0,0,26900
70.60000000,70600,0,0,0,0,0,0,0,26700
70.72500000,70725,0,0,0,0,0,0,0,26700
70.85000000,70850,0,0,0,0,0,0,0,26700
70.97500000,70975,0,0,0,0,0,0,0,26700
71.10000000,71100,0,0,0,0,0,0,0,26700
71.22500000,71225,0,0,0,0,0,0,0,26700
71.35000000,71350,0,0,0,0,0,0,0,26700
71.47500000,71475,0,0,0,0,0,0,0,26700
71.60000000,71600,0,0,0,0,0,0,0,26900
71.72500000,71725,0,0,0,0,0,0,0,26900
71.85000000,71850,0,0,0,0,0,0,0,26700
71.97500000,71975,0,0,0,0,0,0,0,26600
72.10000000,72100,0,0,0,0,0,0,0,26600
72.22500000,72225,0,0,0,0,0,0,0,26400
72.35000000,72350,0,0,0,0,0,0,0,26600
72.47500000,72475,0,0,0,0,0,0,0,26600
72.60000000,72600,0,0,0,0,0,0,0,26600
72.72500000,72725,0,0,0,0,0,0,0,26600
72.85000000,72850,0,0,0,0,0,0,0,26700
72.97500000,72975,369884610,-1220509400,168900,0,0,0,0,26600
73.10000000,73100,369884610,-1220509400,168900,0,0,0,0,26600
73.22500000,73225,369884610,-1220509400,168900,0,0,0,0,26600
73.35000000,73350,369884610,-1220509400,168900,0,0,0,0,26600
73.47500000,73475,369884610,-1220509400,168900,0,0,0,0,26600
73.60000000,73600,369884610,-1220509400,168900,0,0,0,0,26400
73.72500000,73725,369884610,-1220509400,168900,0,0,0,0,26300
73.85000000,73850,369884610,-1220509400,168900,0,0,0,0,26300
73.97500000,73975,369884610,-1220509400,168900,0,0,0,0,26200
74.10000000,74100,369884610,-1220509400,168900,0,0,0,0,26300
74.22500000,74225,369884610,-1220509400,168900,0,0,0,0,26300
74.35000000,74350,369884610,-1220509400,168900,0,0,0,0,26300
74.47500000,74475,369884610,-1220509400,168900,0,0,0,0,26300
74.60000000,74600,369884610,-1220509400,168900,0,0,0,0,26300
74.72500000,74725,369884610,-1220509400,168900,0,0,0,0,26300
74.85000000,74850,369884610,-1220509400,168900,0,0,0,0,26300
74.97500000,74975,369884610,-1220509400,168900,0,0,0,0,26300
75.10000000,75100,369884610,-1220509400,168900,0,33,0,-40,26300
75.22500000,75225,369884610,-1220509400,168900,0,-14,0,3,26300
75.35000000,75350,369884610,-1220509400,168900,0,-26,1,3,26300
75.47500000,75475,369884610,-1220509400,168900,0,2,44,7,26300
75.60000000,75600,369884520,-1220509400,168900,0,-7,3,5,26300
75.72500000,75725,369884520,-1220509400,168900,0,-18,0,4,26200
75.85000000,75850,369884520,-1220509400,168900,0,-27,1,5,26200
75.97500000,75975,369884520,-1220509400,168900,0,-35,0,6,26200
76.10000000,76100,369884520,-1220509400,168900,0,-43,-2,16,26200
76.22500000,76225,369884520,-1220509400,168900,0,-51,-3,-25,26200
76.35000000,76350,369884520,-1220509400,168900,0,-58,-3,-25,26200
76.47500000,76475,369884520,-1220509400,168900,0,-61,-3,12,26200
76.60000000,76600,369884520,-1220509400,168900,0,-67,-4,13,26200
76.72500000,76725,369884520,-1220509400,167900,-1000,-73,-6,12,26200
76.85000000,76850,369884520,-1220509400,168900,0,-79,-6,-29,26200
76.97500000,76975,369884520,-1220509400,168900,0,-85,-7,-28,26200
77.10000000,77100,369884520,-1220509400,168900,0,-90,-4,13,26200
77.22500000,77225,369884520,-1220509400,168900,0,-106,-11,5,26300
77.35000000,77350,369884430,-1220509400,168900,0,-107,-4,5,26300
77.47500000,77475,369884430,-1220509400,168900,0,-66,-13,6,26200
77.60000000,77600,369884430,-1220509400,168900,0,-68,-8,7,26200
77.72500000,77725,369884430,-1220509400,167900,-1000,-71,-13,7,26200
77.85000000,77850,369884430,-1220509400,168900,0,-72,25,-30,25900
77.97500000,77975,369884430,-1220509400,168900,0,-76,25,-33,25900
78.10000000,78100,369884430,-1220509400,168900,0,-77,-13,4,26000
78.22500000,78225,369884430,-1220509400,168900,0,-78,-16,6,26000
78.35000000,78350,369884430,-1220509400,168900,0,-78,-14,5,26200
78.47500000,78475,369884430,-1220509400,168900,0,-77,26,8,26200
78.60000000,78600,369884340,-1220509400,168900,0,-41,-13,6,26300
78.72500000,78725,369884340,-1220509400,168900,0,-43,-15,5,26300
78.85000000,78850,369884340,-1220509400,168900,0,-43,27,4,26300
78.97500000,78975,369884340,-1220509400,168900,0,-40,29,1,26300
79.10000000,79100,369884340,-1220509400,168900,0,-41,-14,2,26300
79.22500000,79225,369884340,-1220509400,168900,0,-37,-11,10,26300
79.35000000,79350,369884340,-1220509400,167900,-1000,-45,-10,11,26300
79.47500000,79475,369884340,-1220509400,168900,0,-39,-15,-22,26300
79.60000000,79600,369884340,-1220509400,168900,0,-37,34,19,26300
79.72500000,79725,369884340,-1220509400,168900,0,-37,29,11,26300
79.85000000,79850,369884340,-1220509400,168900,0,-30,-10,5,26400
79.97500000,79975,369884340,-1220509400,167900,-1000,-28,-7,8,26400
80.10000000,80100,369884340,-1220509400,168900,0,-27,-10,-37,26400
80.22500000,80225,369884340,-1220509400,168900,0,-22,-11,18,26600
80.35000000,80350,369884340,-1220509400,168900,0,-24,-12,13,26400
80.47500000,80475,369884340,-1220509400,168900,0,-25,31,12,26400
80.60000000,80600,369884340,-1220509400,167900,-1000,-27,-9,9,26300
80.72500000,80725,369884340,-1220509400,167900,-1000,-15,-6,13,26400
80.85000000,80850,369884340,-1220509400,168900,0,-4,-3,-28,26400
80.97500000,80975,369884340,-1220509400,168900,0,0,-2,-38,26300
81.10000000,81100,369884340,-1220509400,168900,0,-4,-6,-2,26300
81.22500000,81225,369884340,-1220509400,168900,0,4,37,2,26300
81.35000000,81350,369884340,-1220509400,168900,0,2,32,13,26300
81.47500000,81475,369884340,-1220509400,168900,0,-3,0,2,26300
81.60000000,81600,369884340,-1220509400,168900,0,-9,5,-3,26300
81.72500000,81725,369884340,-1220509400,168900,0,-3,5,5,26300
81.85000000,81850,369884340,-1220509400,168900,0,-11,8,-7,26300
81.97500000,81975,369884340,-1220509400,168900,0,7,0,-2,26400
82.10000000,82100,369884340,-1220509400,168900,0,13,3,3,26400
82.22500000,82225,369884340,-1220509400,168900,0,10,2,-2,26400
82.35000000,82350,369884340,-1220509400,168900,0,17,5,3,26400
82.47500000,82475,369884340,-1220509400,168900,0,15,-2,-8,26400
82.60000000,82600,369884340,-1220509400,168900,0,22,3,-1,26300
82.72500000,82725,369884340,-1220509400,168900,0,27,2,0,26300
82.85000000,82850,369884340,-1220509400,168900,0,30,3,-5,26400
82.97500000,82975,369884340,-1220509400,168900,0,27,4,0,26400
83.10000000,83100,369884340,-1220509400,168900,0,33,12,16,26600
83.22500000,83225,369884340,-1220509400,168900,0,21,-2,7,26600
83.35000000,83350,369884340,-1220509400,168900,0,13,-10,-5,26600
83.47500000,83475,369884340,-1220509400,168900,0,23,-4,1,26600
83.60000000,83600,369884340,-1220509400,168900,0,27,2,5,26400
83.72500000,83725,369884340,-1220509400,168900,0,23,-3,1,26400
83.85000000,83850,369884340,-1220509400,168900,0,24,-6,0,26400
83.97500000,83975,369884340,-1220509400,168900,0,28,-2,-9,26400
84.10000000,84100,369884340,-1220509400,168900,0,19,-4,1,26400
84.22500000,84225,369884340,-1220509400,168900,0,21,-3,8,26300
84.35000000,84350,369884340,-1220509400,168900,0,28,-1,-3,26400
84.47500000,84475,369884340,-1220509400,168900,0,31,-1,13,26400
84.60000000,84600,369884340,-1220509400,168900,0,28,5,7,26400
84.72500000,84725,369884340,-1220509400,168900,0,21,-4,7,26400
84.85000000,84850,369884340,-1220509400,168900,0,26,4,2,26400
84.97500000,84975,369884340,-1220509400,168900,0,31,8,8,26400
85.10000000,85100,369884340,-1220509400,168900,0,27,4,6,26400
85.22500000,85225,369884340,-1220509400,168900,0,32,8,-33,26400
85.35000000,85350,369884340,-1220509400,168900,0,21,-6,-38,26400
85.47500000,85475,369884340,-1220509400,168900,0,36,7,4,26600
85.60000000,85600,369884340,-1220509400,168900,0,37,7,4,26600
85.72500000,85725,369884430,-1220509400,168900,0,31,5,1,26600
85.85000000,85850,369884430,-1220509400,168900,0,-13,5,0,26300
85.97500000,85975,369884430,-1220509400,168900,0,-11,8,-11,26000
86.10000000,86100,369884430,-1220509400,168900,0,0,4,2,26000
86.22500000,86225,369884430,-1220509400,168900,0,-7,8,-9,26000
86.35000000,86350,369884430,-1220509400,168900,0,-9,6,4,26000
86.47500000,86475,369884340,-1220509400,168900,0,-7,10,11,26000
86.60000000,86600,369884340,-1220509400,168900,0,31,8,7,26000
86.72500000,86725,369884430,-1220509400,168900,0,37,9,5,25900
86.85000000,86850,369884430,-1220509400,168900,0,-5,9,0,25900
86.97500000,86975,369884430,-1220509400,168900,0,-10,9,-8,25900
87.10000000,87100,369884430,-1220509400,168900,0,-1,7,7,25900
87.22500000,87225,369884430,-1220509400,168900,0,-11,9,5,25700
87.35000000,87350,369884430,-1220509400,168900,0,-5,9,11,25700
87.47500000,87475,369884430,-1220509400,168900,0,-7,4,11,25700
87.60000000,87600,369884430,-1220509400,168900,0,29,4,-34,25700
87.72500000,87725,369884430,-1220509400,168900,0,41,7,-41,25700
87.85000000,87850,369884430,-1220509400,168900,0,-8,1,0,25700
87.97500000,87975,369884430,-1220509400,168900,0,-16,7,8,25600
88.10000000,88100,369884430,-1220509400,168900,0,-3,13,16,25600
88.22500000,88225,369884430,-1220509400,168900,0,-4,14,2,25700
88.35000000,88350,369884430,-1220509400,168900,0,0,13,10,25700
88.47500000,88475,369884430,-1220509400,168900,0,-5,9,6,25700
88.60000000,88600,369884430,-1220509400,168900,0,-5,14,4,25700
88.72500000,88725,369884430,-1220509400,168900,0,5,7,7,25700
88.85000000,88850,369884430,-1220509400,167900,-1000,3,7,11,25700
88.97500000,88975,369884430,-1220509400,167900,-1000,3,10,11,25700
89.10000000,89100,369884430,-1220509400,168900,0,1,8,-30,25700
89.22500000,89225,369884430,-1220509400,168900,0,7,9,11,25700
89.35000000,89350,369884430,-1220509400,168900,0,10,5,12,25700
89.47500000,89475,369884430,-1220509400,168900,0,10,9,10,25900
89.60000000,89600,369884430,-1220509400,168900,0,9,6,7,25900
89.72500000,89725,369884430,-1220509400,168900,0,6,7,3,25900
89.85000000,89850,369884430,-1220509400,167900,-1000,17,11,6,25900
89.97500000,89975,369884430,-1220509400,167900,-1000,21,12,3,25900
90.10000000,90100,369884430,-1220509400,168900,0,21,11,-36,25900
90.22500000,90225,369884430,-1220509400,168900,0,23,12,5,25900
90.35000000,90350,369884430,-1220509400,168900,0,22,12,1,25900
90.47500000,90475,369884430,-1220509400,168900,0,21,12,0,25900
90.60000000,90600,369884430,-1220509400,168900,0,31,19,-10,25900
90.72500000,90725,369884430,-1220509400,168900,0,30,8,-5,26000
90.85000000,90850,369884430,-1220509400,168900,0,27,17,-4,26000
90.97500000,90975,369884430,-1220509400,168900,0,28,15,-2,26000
91.10000000,91100,369884430,-1220509400,168900,0,10,4,-2,26000
91.22500000,91225,369884430,-1220509400,168900,0,20,14,-1,26000
91.35000000,91350,369884430,-1220509400,168900,0,20,22,-4,26000
91.47500000,91475,369884430,-1220509400,168900,0,17,17,-8,25900
91.60000000,91600,369884430,-1220509400,168900,0,28,22,-7,25900
91.72500000,91725,369884430,-1220509400,168900,0,18,17,-8,26000
91.85000000,91850,369884430,-1220509400,168900,0,19,17,-11,25900
91.97500000,91975,369884430,-1220509400,168900,0,23,20,-9,25900
92.10000000,92100,369884430,-1220509400,168900,0,26,23,-6,25900
92.22500000,92225,369884430,-1220509400,168900,0,23,29,-5,25700
92.35000000,92350,369884430,-1220509400,168900,0,33,23,-2,25600
92.47500000,92475,369884430,-1220509400,168900,0,35,20,-6,25600
92.60000000,92600,369884430,-1220509400,168900,0,34,20,-8,25600
92.72500000,92725,369884430,-1220509400,168900,0,33,18,-3,25600
92.85000000,92850,369884430,-1220509400,168900,0,35,18,-4,25600
92.97500000,92975,369884430,-1220509400,168900,0,32,19,-7,25600
93.10000000,93100,369884430,-1220509310,168900,0,32,17,-4,25600
93.22500000,93225,369884430,-1220509310,168900,0,34,-20,-2,25500
93.35000000,93350,369884430,-1220509400,168900,0,34,-22,-3,25500
93.47500000,93475,369884520,-1220509310,168900,0,32,18,-2,25500
93.60000000,93600,369884520,-1220509310,168900,0,-13,-23,-6,25300
93.72500000,93725,369884520,-1220509400,168900,0,-12,-22,-4,25300
93.85000000,93850,369884520,-1220509400,168900,0,-11,18,3,25200
93.97500000,93975,369884430,-1220509310,168900,0,29,-25,4,25200
94.10000000,94100,369884520,-1220509400,168900,0,27,-24,4,25200
94.22500000,94225,369884520,-1220509400,168900,0,-21,19,3,25000
94.35000000,94350,369884520,-1220509400,168900,0,-14,13,2,24900
94.47500000,94475,369884520,-1220509310,168900,0,-14,13,2,25000
94.60000000,94600,369884430,-1220509310,168900,0,23,-28,1,25000
94.72500000,94725,369884520,-1220509400,168900,0,19,-26,0,25000
94.85000000,94850,369884520,-1220509400,168900,0,-19,17,-1,25000
94.97500000,94975,369884430,-1220509400,168900,0,23,16,-2,25000
95.10000000,95100,369884520,-1220509310,168900,0,22,18,-2,25200
95.22500000,95225,369884520,-1220509310,168900,0,-22,-23,-1,25200
95.35000000,95350,369884430,-1220509400,168900,0,-21,-23,1,25200
95.47500000,95475,369884520,-1220509310,168900,0,21,16,1,25200
95.60000000,95600,369884520,-1220509310,168900,0,-21,-24,-1,25200
95.72500000,95725,369884430,-1220509400,168900,0,-24,-25,-1,25200
95.85000000,95850,369884430,-1220509400,168900,0,16,15,-3,25000
95.97500000,95975,369884520,-1220509310,168900,0,-24,15,-3,25000
96.10000000,96100,369884430,-1220509310,168900,0,-25,14,-4,25000
96.22500000,96225,369884430,-1220509310,168900,0,16,-26,-3,25000
96.35000000,96350,369884430,-1220509400,168900,0,15,-26,-2,25000
96.47500000,96475,369884520,-1220509400,168900,0,14,14,-1,25000
96.60000000,96600,369884520,-1220509400,168900,0,-25,-26,-1,25000
96.72500000,96725,369884430,-1220509400,168900,0,-25,-26,0,25000
96.85000000,96850,369884430,-1220509400,168900,0,15,14,0,25000
96.97500000,96975,369884520,-1220509400,168900,0,16,14,1,25000
97.10000000,97100,369884520,-1220509310,168900,0,16,14,1,24900
97.22500000,97225,369884520,-1220509400,168900,0,-23,-26,2,24900
97.35000000,97350,369884430,-1220509400,168900,0,-22,-26,2,24900
97.47500000,97475,369884520,-1220509400,168900,0,18,13,3,24900
97.60000000,97600,369884520,-1220509400,168900,0,-21,13,3,24900
97.72500000,97725,369884430,-1220509310,168900,0,-21,13,4,24900
97.85000000,97850,369884430,-1220509400,168900,0,20,-27,4,24900
97.97500000,97975,369884520,-1220509400,168900,0,-19,13,4,24900
98.10000000,98100,369884430,-1220509400,168900,0,-19,13,4,24900
98.22500000,98225,369884430,-1220509400,168900,0,22,13,5,24900
98.35000000,98350,369884520,-1220509310,168900,0,23,13,5,24900
98.47500000,98475,369884430,-1220509400,168900,0,-16,-27,5,24700
98.60000000,98600,369884430,-1220509400,168900,0,25,13,5,24700
98.72500000,98725,369884520,-1220509400,168900,0,26,13,6,24700
98.85000000,98850,369884520,-1220509400,168900,0,-13,13,6,24600
98.97500000,98975,369884520,-1220509400,168900,0,-12,-27,7,24600
99.10000000,99100,369884430,-1220509400,168900,0,-11,-27,7,24600
99.22500000,99225,369884520,-1220509400,168900,0,30,13,7,24600
99.35000000,99350,369884520,-1220509400,168900,0,31,13,7,24500
99.47500000,99475,369884520,-1220509400,168900,0,-8,13,7,24500
99.60000000,99600,369884520,-1220509400,168900,0,-7,-27,7,24500
99.72500000,99725,369884520,-1220509400,168900,0,-6,-27,8,24500
99.85000000,99850,369884520,-1220509400,168900,0,-5,14,8,24500
99.97500000,99975,369884520,-1220509400,168900,0,-4,14,8,24500
100.10000000,100100,369884430,-1220509400,168900,0,-3,14,8,24500
100.22500000,100225,369884520,-1220509400,168900,0,38,-26,8,24500
100.35000000,100350,369884520,-1220509400,168900,0,39,-26,8,24500
100.47500000,100475,369884520,-1220509400,168900,0,0,14,8,24500
100.60000000,100600,369884520,-1220509400,168900,0,1,14,8,24300
100.72500000,100725,369884520,-1220509310,168900,0,3,14,8,24300
100.85000000,100850,369884520,-1220509400,167900,-1000,4,-26,9,24300
100.97500000,100975,369884520,-1220509400,167900,-1000,5,15,-31,24300
101.10000000,101100,369884520,-1220509400,168900,0,6,15,-31,24300
101.22500000,101225,369884520,-1220509310,168900,0,7,15,9,24300
101.35000000,101350,369884520,-1220509310,168900,0,9,15,9,24300
101.47500000,101475,369884520,-1220509400,168900,0,10,-25,9,24300
101.60000000,101600,369884520,-1220509400,168900,0,11,16,9,24300
101.72500000,101725,369884520,-1220509400,167900,-1000,12,16,9,24300
101.85000000,101850,369884520,-1220509400,168900,0,13,-24,-31,24300
101.97500000,101975,369884520,-1220509400,168900,0,15,16,9,24300
102.10000000,102100,369884520,-1220509400,168900,0,16,16,9,24200
102.22500000,102225,369884520,-1220509400,168900,0,17,16,9,24200
102.35000000,102350,369884520,-1220509310,168900,0,18,16,9,24200
102.47500000,102475,369884520,-1220509400,168900,0,19,-24,10,24200
102.60000000,102600,369884520,-1220509400,168900,0,20,16,-30,24200
102.72500000,102725,369884520,-1220509400,168900,0,21,16,-30,24200
102.85000000,102850,369884520,-1220509400,168900,0,22,-24,10,24200
102.97500000,102975,369884520,-1220509400,168900,0,23,16,10,24200
103.10000000,103100,369884520,-1220509400,168900,0,24,16,10,24200
103.22500000,103225,369884520,-1220509400,168900,0,25,16,10,24200
103.35000000,103350,369884520,-1220509310,167900,-1000,26,16,10,24200
103.47500000,103475,369884520,-1220509400,168900,0,27,-24,-30,24200
103.60000000,103600,369884520,-1220509400,168900,0,28,16,10,24000
103.72500000,103725,369884520,-1220509400,168900,0,29,16,10,24000
103.85000000,103850,369884520,-1220509400,168900,0,30,-24,10,24000
103.97500000,103975,369884520,-1220509400,168900,0,31,16,10,24000
104.10000000,104100,369884520,-1220509400,168900,0,31,16,10,24000
104.22500000,104225,369884520,-1220509400,168900,0,32,16,-30,24000
104.35000000,104350,369884520,-1220509310,168900,0,33,16,-30,24000
104.47500000,104475,369884520,-1220509400,168900,0,34,-24,10,24000
104.60000000,104600,369884520,-1220509400,168900,0,34,16,11,24000
104.72500000,104725,369884520,-1220509400,168900,0,35,15,10,24000
104.85000000,104850,369884520,-1220509400,168900,0,36,-25,10,24000
104.97500000,104975,369884520,-1220509400,168900,0,36,15,-30,24000
105.10000000,105100,369884610,-1220509400,168900,0,37,15,-30,23900
105.22500000,105225,369884610,-1220509400,168900,0,-2,15,10,23900
105.35000000,105350,369884610,-1220509310,168900,0,-2,15,11,23900
105.47500000,105475,369884610,-1220509400,168900,0,-1,-25,11,23900
105.60000000,105600,369884610,-1220509400,168900,0,0,15,11,23900
105.72500000,105725,369884610,-1220509400,167900,-1000,0,15,11,23900
105.85000000,105850,369884610,-1220509310,168900,0,1,15,-29,23900
105.97500000,105975,369884610,-1220509310,168900,0,2,-25,11,23900
106.10000000,106100,369884610,-1220509400,168900,0,2,-26,11,23900
106.22500000,106225,369884610,-1220509400,168900,0,3,14,11,23900
106.35000000,106350,369884610,-1220509310,168900,0,3,14,11,23900
106.47500000,106475,369884610,-1220509400,167900,-1000,3,-26,11,23900
106.60000000,106600,369884610,-1220509400,167900,-1000,4,14,-29,23800
106.72500000,106725,369884610,-1220509400,168900,0,4,14,-29,23800
106.85000000,106850,369884610,-1220509400,168900,0,5,14,11,23800
106.97500000,106975,369884610,-1220509400,168900,0,5,-26,11,23800
107.10000000,107100,369884610,-1220509400,167900,-1000,6,-26,11,23800
107.22500000,107225,369884610,-1220509400,168900,0,6,13,-29,23800
107.35000000,107350,369884610,-1220509400,168900,0,7,13,-29,23800
107.47500000,107475,369884610,-1220509400,168900,0,7,13,11,23800
107.60000000,107600,369884610,-1220509400,168900,0,7,-27,11,23800
107.72500000,107725,369884610,-1220509400,168900,0,7,-27,11,23800
107.85000000,107850,369884610,-1220509400,167900,-1000,8,12,11,23800
107.97500000,107975,369884610,-1220509400,167900,-1000,8,12,-29,23600
108.10000000,108100,369884610,-1220509400,168900,0,8,12,-29,23600
108.22500000,108225,369884610,-1220509400,168900,0,8,-28,11,23600
108.35000000,108350,369884610,-1220509400,168900,0,8,-28,11,23600
108.47500000,108475,369884610,-1220509400,168900,0,8,12,12,23600
108.60000000,108600,369884610,-1220509400,168900,0,8,12,-29,23600
108.72500000,108725,369884610,-1220509400,168900,0,8,11,-29,23600
108.85000000,108850,369884610,-1220509310,168900,0,9,11,11,23600
108.97500000,108975,369884610,-1220509310,168900,0,9,-29,11,23600
109.10000000,109100,369884610,-1220509400,168900,0,9,-29,11,23600
109.22500000,109225,369884610,-1220509400,168900,0,9,11,11,23600
109.35000000,109350,369884610,-1220509400,167900,-1000,9,10,11,23500
109.47500000,109475,369884610,-1220509400,168900,0,9,10,-29,23500
109.60000000,109600,369884610,-1220509310,168900,0,10,10,11,23500
109.72500000,109725,369884610,-1220509310,168900,0,10,10,11,23500
109.85000000,109850,369884610,-1220509400,168900,0,10,-31,11,23500
109.97500000,109975,369884610,-1220509400,167900,-1000,10,9,11,23500
110.10000000,110100,369884610,-1220509400,167900,-1000,10,9,12,23500
110.22500000,110225,369884610,-1220509400,167900,-1000,10,8,-27,23500
110.35000000,110350,369884610,-1220509400,168900,0,10,8,-28,23500
110.47500000,110475,369884610,-1220509310,168900,0,10,8,12,23500
110.60000000,110600,369884610,-1220509400,168900,0,10,-33,12,23500
110.72500000,110725,369884610,-1220509400,167900,-1000,10,-34,13,23500
110.85000000,110850,369884610,-1220509400,168900,0,11,7,-27,23500
110.97500000,110975,369884610,-1220509400,168900,0,11,7,13,23500
111.10000000,111100,369884610,-1220509400,168900,0,11,7,13,23300
111.22500000,111225,369884610,-1220509400,167900,-1000,11,7,13,23300
111.35000000,111350,369884610,-1220509400,167900,-1000,12,7,-27,23300
111.47500000,111475,369884610,-1220509400,168900,0,12,8,-27,23300
111.60000000,111600,369884610,-1220509310,168900,0,12,8,13,23300
111.72500000,111725,369884610,-1220509310,168900,0,12,8,13,23300
111.85000000,111850,369884610,-1220509400,167900,-1000,12,-32,12,23300
111.97500000,111975,369884610,-1220509400,168900,0,12,8,-28,23300
112.10000000,112100,369884610,-1220509400,168900,0,12,8,-28,23300
112.22500000,112225,369884610,-1220509400,168900,0,12,8,12,23300
112.35000000,112350,369884610,-1220509400,168900,0,12,8,12,23300
112.47500000,112475,369884610,-1220509400,168900,0,12,8,12,23300
112.60000000,112600,369884610,-1220509310,168900,0,12,8,-28,23300
112.72500000,112725,369884610,-1220509310,168900,0,11,8,-28,23300
112.85000000,112850,369884610,-1220509400,168900,0,11,-31,12,23200
112.97500000,112975,369884610,-1220509400,168900,0,11,9,12,23200
113.10000000,113100,369884610,-1220509400,168900,0,11,8,12,23200
113.22500000,113225,369884610,-1220509400,167900,-1000,11,8,12,23200
113.35000000,113350,369884610,-1220509400,167900,-1000,11,8,-28,23200
113.47500000,113475,369884610,-1220509400,168900,0,11,8,-28,23200
113.60000000,113600,369884610,-1220509400,168900,0,11,-32,12,23200
113.72500000,113725,369884610,-1220509400,168900,0,11,-32,12,23200
113.85000000,113850,369884610,-1220509400,167900,-1000,11,8,12,23200
113.97500000,113975,369884610,-1220509400,168900,0,11,8,-28,23200
114.10000000,114100,369884610,-1220509400,168900,0,11,8,-28,23200
114.22500000,114225,369884610,-1220509400,168900,0,10,8,12,23200
114.35000000,114350,369884610,-1220509400,168900,0,10,8,12,23200
114.47500000,114475,369884610,-1220509400,168900,0,10,8,12,23200
114.60000000,114600,369884610,-1220509400,168900,0,10,-32,-28,23100
114.72500000,114725,369884610,-1220509400,168900,0,9,-32,-29,23100
114.85000000,114850,369884610,-1220509400,168900,0,9,8,11,23100
114.97500000,114975,369884610,-1220509400,168900,0,9,8,11,23100
115.10000000,115100,369884610,-1220509400,168900,0,9,8,11,23100
115.22500000,115225,369884610,-1220509400,167900,-1000,8,8,11,23100
115.35000000,115350,369884610,-1220509400,167900,-1000,8,8,-29,23100
115.47500000,115475,369884610,-1220509400,168900,0,8,8,-29,23100
115.60000000,115600,369884610,-1220509400,168900,0,8,-32,11,23100
115.72500000,115725,369884610,-1220509400,168900,0,8,-32,11,23100
115.85000000,115850,369884610,-1220509400,168900,0,8,8,11,23100
115.97500000,115975,369884610,-1220509400,168900,0,8,8,-29,23100
116.10000000,116100,369884610,-1220509400,168900,0,7,8,-29,23100
116.22500000,116225,369884610,-1220509400,168900,0,7,8,11,23100
116.35000000,116350,369884610,-1220509400,168900,0,7,8,11,22900
116.47500000,116475,369884610,-1220509400,168900,0,7,8,11,22900
116.60000000,116600,369884610,-1220509400,168900,0,7,-32,11,22900
116.72500000,116725,369884610,-1220509400,167900,-1000,6,-32,11,22900
116.85000000,116850,369884610,-1220509400,168900,0,6,8,-29,22900
116.97500000,116975,369884700,-1220509400,168900,0,6,8,11,22900
117.10000000,117100,369884700,-1220509400,168900,0,5,8,11,22900
117.22500000,117225,369884610,-1220509400,168900,0,-35,8,11,22900
117.35000000,117350,369884610,-1220509400,167900,-1000,5,8,11,22900
117.47500000,117475,369884610,-1220509400,167900,-1000,4,8,10,22900
117.60000000,117600,369884610,-1220509400,168900,0,4,-33,-31,22900
117.72500000,117725,369884610,-1220509400,168900,0,3,-33,-30,22900
117.85000000,117850,369884610,-1220509400,168900,0,3,7,10,22900
117.97500000,117975,369884610,-1220509400,168900,0,3,7,11,22900
118.10000000,118100,369884610,-1220509400,167900,-1000,3,8,11,22800
118.22500000,118225,369884610,-1220509400,168900,0,3,8,-29,22800
118.35000000,118350,369884610,-1220509400,168900,0,3,8,11,22800
118.47500000,118475,369884610,-1220509400,168900,0,3,8,11,22800
118.60000000,118600,369884610,-1220509310,168900,0,3,9,11,22800
118.72500000,118725,369884610,-1220509310,168900,0,3,9,10,22800
118.85000000,118850,369884610,-1220509400,167900,-1000,2,-31,10,22800
118.97500000,118975,369884610,-1220509400,168900,0,2,9,-31,22800
119.10000000,119100,369884610,-1220509400,168900,0,2,10,-32,22800
119.22500000,119225,369884610,-1220509400,168900,0,1,10,8,22800
119.35000000,119350,369884610,-1220509400,168900,0,1,11,8,22800
119.47500000,119475,369884610,-1220509310,168900,0,1,11,8,22800
119.60000000,119600,369884700,-1220509400,168900,0,2,-28,8,22800
119.72500000,119725,369884700,-1220509400,168900,0,2,-28,9,22800
119.85000000,119850,369884610,-1220509400,167900,-1000,-38,12,9,22600
119.97500000,119975,369884610,-1220509400,168900,0,2,13,-31,22600
120.10000000,120100,369884610,-1220509310,168900,0,2,13,-30,22600
120.22500000,120225,369884610,-1220509400,168900,0,1,-27,10,22600
120.35000000,120350,369884610,-1220509400,168900,0,2,13,10,22600
120.47500000,120475,369884610,-1220509400,168900,0,2,13,10,22600
120.60000000,120600,369884610,-1220509400,167900,-1000,2,13,10,22600
120.72500000,120725,369884610,-1220509310,167900,-1000,2,13,10,22600
120.85000000,120850,369884610,-1220509400,168900,0,2,-27,-30,22600
120.97500000,120975,369884610,-1220509400,168900,0,2,14,10,22600
121.10000000,121100,369884610,-1220509400,168900,0,1,14,10,22600
121.22500000,121225,369884610,-1220509310,168900,0,2,14,11,22600
121.35000000,121350,369884610,-1220509310,167900,-1000,2,-26,11,22600
121.47500000,121475,369884610,-1220509400,167900,-1000,2,-26,11,22500
121.60000000,121600,369884610,-1220509400,168900,0,2,14,-29,22500
121.72500000,121725,369884610,-1220509400,168900,0,1,14,-29,22500
121.85000000,121850,369884610,-1220509310,168900,0,1,14,11,22500
121.97500000,121975,369884610,-1220509310,168900,0,1,-25,11,22500
122.10000000,122100,369884610,-1220509400,167900,-1000,2,-25,11,22500
122.22500000,122225,369884610,-1220509400,168900,0,2,15,-28,22500
122.35000000,122350,369884610,-1220509310,168900,0,2,15,13,22500
122.47500000,122475,369884610,-1220509310,168900,0,2,15,13,22500
122.60000000,122600,369884610,-1220509310,168900,0,2,-25,13,22500
122.72500000,122725,369884610,-1220509400,167900,-1000,2,-24,13,22400
122.85000000,122850,369884610,-1220509310,168900,0,2,16,-27,22400
122.97500000,122975,369884610,-1220509310,168900,0,2,-24,13,22400
123.10000000,123100,369884610,-1220509400,168900,0,3,-24,13,22200
123.22500000,123225,369884610,-1220509400,168900,0,2,16,14,22200
123.35000000,123350,369884610,-1220509310,168900,0,3,17,-26,22200
123.47500000,123475,369884610,-1220509310,168900,0,3,17,-26,22200
123.60000000,123600,369884610,-1220509310,168900,0,3,-23,14,22200
123.72500000,123725,369884700,-1220509400,168900,0,2,-22,14,22200
123.85000000,123850,369884610,-1220509310,168900,0,-38,18,14,22200
123.97500000,123975,369884610,-1220509310,168900,0,2,-22,-26,22200
124.10000000,124100,369884610,-1220509400,168900,0,2,-21,-26,22200
124.22500000,124225,369884610,-1220509310,168900,0,2,19,14,22200
124.35000000,124350,369884610,-1220509310,168900,0,2,-20,14,22200
124.47500000,124475,369884610,-1220509400,167900,-1000,2,-20,14,22200
124.60000000,124600,369884610,-1220509400,168900,0,1,21,-26,22200
124.72500000,124725,369884610,-1220509310,168900,0,1,21,-26,22200
124.85000000,124850,369884610,-1220509310,168900,0,2,-19,14,22100
124.97500000,124975,369884610,-1220509400,168900,0,2,22,14,22100
125.10000000,125100,369884610,-1220509310,167900,-1000,2,22,14,22100
125.22500000,125225,369884610,-1220509310,168900,0,1,-18,-26,22100
125.35000000,125350,369884610,-1220509310,168900,0,1,22,14,22100
125.47500000,125475,369884610,-1220509310,168900,0,1,22,14,22100
125.60000000,125600,369884610,-1220509310,167900,-1000,1,-17,14,22100
125.72500000,125725,369884610,-1220509310,167900,-1000,1,-17,14,22100
125.85000000,125850,369884610,-1220509400,168900,0,2,-16,-26,22100
125.97500000,125975,369884610,-1220509400,168900,0,2,25,14,22100
126.10000000,126100,369884610,-1220509310,168900,0,2,25,14,22100
126.22500000,126225,369884610,-1220509310,168900,0,2,-14,-25,21900
126.35000000,126350,369884610,-1220509310,168900,0,2,26,16,21900
126.47500000,126475,369884610,-1220509310,168900,0,2,26,15,21900
126.60000000,126600,369884610,-1220509310,168900,0,2,-14,15,21900
126.72500000,126725,369884610,-1220509310,167900,-1000,3,-13,15,21900
126.85000000,126850,369884610,-1220509310,168900,0,3,-12,-25,21900
126.97500000,126975,369884610,-1220509310,168900,0,3,28,15,21900
127.10000000,127100,369884610,-1220509310,168900,0,3,28,15,21900
127.22500000,127225,369884610,-1220509310,167900,-1000,3,-12,15,21900
127.35000000,127350,369884610,-1220509310,167900,-1000,3,-11,-25,21900
127.47500000,127475,369884610,-1220509310,168900,0,3,-10,-25,21900
127.60000000,127600,369884610,-1220509310,168900,0,3,-10,15,21800
127.72500000,127725,369884700,-1220509400,167900,-1000,2,-9,14,21800
127.85000000,127850,369884610,-1220509310,168900,0,-38,31,-26,21800
127.97500000,127975,369884610,-1220509310,168900,0,2,-8,14,21800
128.10000000,128100,369884610,-1220509310,168900,0,2,-8,14,21800
128.22500000,128225,369884610,-1220509310,168900,0,2,-7,14,21800
128.35000000,128350,369884610,-1220509310,168900,0,2,-7,-26,21800
128.47500000,128475,369884610,-1220509310,168900,0,2,-6,-26,21800
128.60000000,128600,369884610,-1220509310,168900,0,1,-6,14,21800
128.72500000,128725,369884610,-1220509310,168900,0,1,-6,14,21800
128.85000000,128850,369884610,-1220509400,167900,-1000,1,-6,15,21800
128.97500000,128975,369884610,-1220509310,168900,0,1,34,-26,21800
129.10000000,129100,369884610,-1220509310,168900,0,1,34,-26,21800
129.22500000,129225,369884610,-1220509310,168900,0,1,-6,15,21800
129.35000000,129350,369884610,-1220509310,168900,0,1,-6,14,21700
129.47500000,129475,369884610,-1220509310,167900,-1000,1,-5,14,21700
129.60000000,129600,369884610,-1220509310,168900,0,1,-5,-26,21700
129.72500000,129725,369884610,-1220509310,168900,0,0,-5,-26,21700
129.85000000,129850,369884610,-1220509310,168900,0,0,-5,14,21700
129.97500000,129975,369884610,-1220509310,167900,-1000,0,-4,14,21700
130.10000000,130100,369884610,-1220509310,167900,-1000,0,-5,14,21700
130.22500000,130225,369884610,-1220509310,168900,0,-1,-5,-26,21700
130.35000000,130350,369884610,-1220509310,168900,0,-1,-5,14,21700
130.47500000,130475,369884610,-1220509400,168900,0,-1,-5,14,21700
130.60000000,130600,369884610,-1220509310,167900,-1000,-1,36,14,21700
130.72500000,130725,369884610,-1220509310,167900,-1000,-2,36,14,21700
130.85000000,130850,369884610,-1220509310,168900,0,-2,-4,-26,21700
130.97500000,130975,369884610,-1220509310,168900,0,-2,-4,15,21700
131.10000000,131100,369884610,-1220509310,167900,-1000,-2,-4,15,21700
131.22500000,131225,369884610,-1220509310,168900,0,-2,-4,-25,21500
131.35000000,131350,369884610,-1220509310,168900,0,-2,-4,15,21500
131.47500000,131475,369884610,-1220509310,168900,0,-2,-4,15,21500
131.60000000,131600,369884610,-1220509310,168900,0,-2,-3,15,21500
131.72500000,131725,369884610,-1220509310,167900,-1000,-3,-3,15,21500
131.85000000,131850,369884610,-1220509310,168900,0,-3,-3,-26,21500
131.97500000,131975,369884610,-1220509310,168900,0,-4,-3,14,21500
132.10000000,132100,369884610,-1220509310,168900,0,-4,-3,14,21500
132.22500000,132225,369884610,-1220509310,167900,-1000,-4,-3,15,21500
132.35000000,132350,369884610,-1220509310,167900,-1000,-3,-3,-26,21500
132.47500000,132475,369884610,-1220509310,168900,0,-3,-2,-26,21500
132.60000000,132600,369884610,-1220509310,168900,0,-4,-2,14,21500
132.72500000,132725,369884610,-1220509310,167900,-1000,-4,-2,14,21500
132.85000000,132850,369884610,-1220509310,168900,0,-4,-1,-26,21500
132.97500000,132975,369884610,-1220509310,168900,0,-4,-2,14,21500
133.10000000,133100,369884610,-1220509310,168900,0,-4,-2,13,21500
133.22500000,133225,369884610,-1220509310,168900,0,-4,-2,13,21400
133.35000000,133350,369884610,-1220509310,168900,0,-3,38,-26,21400
133.47500000,133475,369884610,-1220509310,168900,0,-3,38,-26,21400
133.60000000,133600,369884610,-1220509310,168900,0,-3,-1,14,21400
133.72500000,133725,369884610,-1220509310,168900,0,-3,-1,14,21400
133.85000000,133850,369884610,-1220509310,168900,0,-3,-1,14,21400
133.97500000,133975,369884610,-1220509310,168900,0,-3,0,-27,21400
134.10000000,134100,369884610,-1220509310,168900,0,-3,0,-28,21400
134.22500000,134225,369884610,-1220509310,168900,0,-3,0,13,21400
134.35000000,134350,369884610,-1220509310,168900,0,-4,0,13,21400
134.47500000,134475,369884610,-1220509310,167900,-1000,-4,0,13,21400
134.60000000,134600,369884610,-1220509310,168900,0,-4,0,-27,21400
134.72500000,134725,369884610,-1220509310,168900,0,-4,-1,-27,21400
134.85000000,134850,369884610,-1220509310,168900,0,-5,-1,13,21400
134.97500000,134975,369884610,-1220509310,168900,0,-5,-1,13,21200
135.10000000,135100,369884610,-1220509310,167900,-1000,-5,-2,14,21200
135.22500000,135225,369884610,-1220509310,168900,0,-5,-2,-27,21200
135.35000000,135350,369884610,-1220509310,168900,0,-5,-2,13,21200
135.47500000,135475,369884610,-1220509310,168900,0,-5,-1,13,21200
135.60000000,135600,369884610,-1220509310,168900,0,-5,-1,14,21200
135.72500000,135725,369884610,-1220509310,167900,-1000,-5,-1,13,21200
135.85000000,135850,369884610,-1220509310,168900,0,-5,0,-27,21200
135.97500000,135975,369884610,-1220509310,168900,0,-5,0,13,21200
136.10000000,136100,369884610,-1220509310,168900,0,-5,0,12,21200
136.22500000,136225,369884610,-1220509310,168900,0,-6,0,12,21200
136.35000000,136350,369884610,-1220509310,168900,0,-6,-1,-28,21200
136.47500000,136475,369884610,-1220509310,168900,0,-6,-1,-29,21200
136.60000000,136600,369884610,-1220509310,168900,0,-6,-1,11,21200
136.72500000,136725,369884610,-1220509310,168900,0,-6,-1,12,21100
136.85000000,136850,369884610,-1220509310,168900,0,-6,-1,12,21100
136.97500000,136975,369884610,-1220509310,167900,-1000,-6,-1,13,21100
137.10000000,137100,369884610,-1220509310,167900,-1000,-6,-1,13,21100
137.22500000,137225,369884610,-1220509310,168900,0,-5,-1,-27,21100
137.35000000,137350,369884610,-1220509310,168900,0,-5,-1,13,21100
137.47500000,137475,369884610,-1220509310,168900,0,-5,-1,13,21100
137.60000000,137600,369884610,-1220509310,167900,-1000,-5,-1,13,21100
137.72500000,137725,369884610,-1220509310,167900,-1000,-5,0,12,21100
137.85000000,137850,369884610,-1220509310,168900,0,-5,0,-28,21100
137.97500000,137975,369884610,-1220509310,168900,0,-6,0,13,21000
138.10000000,138100,369884610,-1220509310,168900,0,-6,0,13,21000
138.22500000,138225,369884610,-1220509310,167900,-1000,-6,0,13,21000
138.35000000,138350,369884610,-1220509310,167900,-1000,-6,0,-26,21000
138.47500000,138475,369884610,-1220509310,168900,0,-6,1,-26,21000
138.60000000,138600,369884610,-1220509310,168900,0,-6,0,14,21000
138.72500000,138725,369884610,-1220509310,168900,0,-6,1,14,21000
138.85000000,138850,369884610,-1220509310,167900,-1000,-6,1,14,21000
138.97500000,138975,369884610,-1220509310,167900,-1000,-6,1,-26,21000
139.10000000,139100,369884610,-1220509310,168900,0,-6,1,-26,21000
139.22500000,139225,369884610,-1220509310,168900,0,-6,1,14,21000
139.35000000,139350,369884610,-1220509310,167900,-1000,-7,1,14,21000
139.47500000,139475,369884610,-1220509310,167900,-1000,-7,1,15,20800
139.60000000,139600,369884610,-1220509310,167900,-1000,-7,1,-25,20800
139.72500000,139725,369884610,-1220509310,168900,0,-7,1,15,20800
139.85000000,139850,369884610,-1220509310,168900,0,-7,1,15,20800
139.97500000,139975,369884610,-1220509310,168900,0,-7,1,-26,20800
140.10000000,140100,369884610,-1220509310,168900,0,-7,2,-27,20800
140.22500000,140225,369884610,-1220509310,168900,0,-7,2,14,20800
140.35000000,140350,369884610,-1220509310,168900,0,-7,2,14,20800
140.47500000,140475,369884610,-1220509310,167900,-1000,-7,2,14,20800
140.60000000,140600,369884610,-1220509310,168900,0,-7,3,-26,20800
140.72500000,140725,369884610,-1220509310,168900,0,-7,3,14,20800
140.85000000,140850,369884610,-1220509310,168900,0,-7,3,14,20800
140.97500000,140975,369884610,-1220509310,168900,0,-7,3,14,20800
141.10000000,141100,369884610,-1220509310,167900,-1000,-7,3,14,20800
141.22500000,141225,369884610,-1220509310,168900,0,-7,3,-27,20700
141.35000000,141350,369884610,-1220509310,168900,0,-7,3,13,20700
141.47500000,141475,369884610,-1220509310,168900,0,-7,3,14,20700
141.60000000,141600,369884610,-1220509310,167900,-1000,-7,3,14,20700
141.72500000,141725,369884610,-1220509310,167900,-1000,-7,3,-26,20700
141.85000000,141850,369884610,-1220509310,168900,0,-7,3,-27,20700
141.97500000,141975,369884610,-1220509310,168900,0,-7,3,13,20700
142.10000000,142100,369884610,-1220509310,168900,0,-7,4,14,20700
142.22500000,142225,369884610,-1220509310,167900,-1000,-7,4,14,20700
142.35000000,142350,369884610,-1220509310,167900,-1000,-7,4,-26,20700
142.47500000,142475,369884610,-1220509310,168900,0,-8,4,-26,20700
142.60000000,142600,369884610,-1220509310,168900,0,-8,4,14,20700
142.72500000,142725,369884610,-1220509310,167900,-1000,-8,4,14,20700
142.85000000,142850,369884610,-1220509310,167900,-1000,-8,4,14,20700
142.97500000,142975,369884610,-1220509310,167900,-1000,-8,4,-26,20500
143.10000000,143100,369884610,-1220509310,168900,0,-9,5,-26,20500
143.22500000,143225,369884610,-1220509310,168900,0,-9,5,14,20500
143.35000000,143350,369884610,-1220509310,168900,0,-9,5,-26,20500
143.47500000,143475,369884610,-1220509310,168900,0,-9,5,-26,20500
143.60000000,143600,369884610,-1220509310,168900,0,-8,5,14,20500
143.72500000,143725,369884610,-1220509310,168900,0,-9,5,14,20500
143.85000000,143850,369884610,-1220509310,168900,0,-9,5,13,20500
143.97500000,143975,369884610,-1220509310,168900,0,-9,5,-27,20500
144.10000000,144100,369884610,-1220509310,168900,0,-9,5,-26,20500
144.22500000,144225,369884610,-1220509310,168900,0,-9,5,13,20500
144.35000000,144350,369884610,-1220509310,168900,0,-9,5,14,20500
144.47500000,144475,369884610,-1220509310,167900,-1000,-10,5,14,20400
144.60000000,144600,369884610,-1220509310,168900,0,-10,5,-26,20400
144.72500000,144725,369884610,-1220509310,168900,0,-10,5,14,20400
144.85000000,144850,369884610,-1220509310,168900,0,-10,5,14,20400
144.97500000,144975,369884610,-1220509310,168900,0,-10,5,14,20400
145.10000000,145100,369884610,-1220509310,167900,-1000,-10,5,14,20400
145.22500000,145225,369884610,-1220509310,168900,0,-10,5,-107,20400
