timestamp,GLOBAL_POSITION_INT.time_boot_ms,GLOBAL_POSITION_INT.lat,GLOBAL_POSITION_INT.lon,GLOBAL_POSITION_INT.alt,GLOBAL_POSITION_INT.relative_alt,GLOBAL_POSITION_INT.vx,GLOBAL_POSITION_INT.vy,GLOBAL_POSITION_INT.vz,GLOBAL_POSITION_INT.hdg
0.10000000,100,0,0,0,0,0,0,0,0
0.22500000,225,0,0,0,0,0,0,0,0
0.35000000,350,0,0,0,0,0,0,0,0
0.47500000,475,0,0,0,0,0,0,0,0
0.60000000,600,0,0,0,0,0,0,0,0
0.72500000,725,0,0,0,0,0,0,0,0
0.85000000,850,0,0,0,0,0,0,0,0
0.97500000,975,0,0,0,0,0,0,0,35900
1.10000000,1100,0,0,0,0,0,0,0,35900
1.22500000,1225,0,0,0,0,0,0,0,35900
1.35000000,1350,0,0,0,0,0,0,0,0
1.47500000,1475,0,0,0,0,0,0,0,0
1.60000000,1600,0,0,0,0,0,0,0,0
1.72500000,1725,0,0,0,0,0,0,0,0
1.85000000,1850,0,0,0,0,0,0,0,0
1.97500000,1975,0,0,0,0,0,0,0,0
2.10000000,2100,0,0,0,0,0,0,0,35900
2.22500000,2225,0,0,0,0,0,0,0,35900
2.35000000,2350,0,0,0,0,0,0,0,0
2.47500000,2475,0,0,0,0,0,0,0,0
2.60000000,2600,0,0,0,0,0,0,0,35900
2.72500000,2725,0,0,0,0,0,0,0,0
2.85000000,2850,0,0,0,0,0,0,0,35900
2.97500000,2975,0,0,0,0,0,0,0,35900
3.10000000,3100,0,0,0,0,0,0,0,35900
3.22500000,3225,0,0,0,0,0,0,0,35900
3.35000000,3350,0,0,0,0,0,0,0,35900
3.47500000,3475,0,0,0,0,0,0,0,35900
3.60000000,3600,0,0,0,0,0,0,0,35900
3.72500000,3725,0,0,0,0,0,0,0,35900
3.85000000,3850,0,0,0,0,0,0,0,35900
3.97500000,3975,0,0,0,0,0,0,0,35900
4.10000000,4100,0,0,0,0,0,0,0,35900
4.22500000,4225,0,0,0,0,0,0,0,35900
4.35000000,4350,0,0,0,0,0,0,0,35900
4.47500000,4475,0,0,0,0,0,0,0,35900
4.60000000,4600,0,0,0,0,0,0,0,35900
4.72500000,4725,0,0,0,0,0,0,0,35900
4.85000000,4850,0,0,0,0,0,0,0,35900
4.97500000,4975,0,0,0,0,0,0,0,35900
5.10000000,5100,0,0,0,0,0,0,0,35900
5.22500000,5225,0,0,0,0,0,0,0,35900
5.35000000,5350,0,0,0,0,0,0,0,35900
5.47500000,5475,0,0,0,0,0,0,0,35900
5.60000000,5600,0,0,0,0,0,0,0,35900
5.72500000,5725,0,0,0,0,0,0,0,35900
5.85000000,5850,0,0,0,0,0,0,0,35900
5.97500000,5975,0,0,0,0,0,0,0,35900
6.10000000,6100,0,0,0,0,0,0,0,35900
6.22500000,6225,0,0,0,0,0,0,0,35900
6.35000000,6350,0,0,0,0,0,0,0,35900
6.47500000,6475,0,0,0,0,0,0,0,35900
6.60000000,6600,0,0,0,0,0,0,0,35900
6.72500000,6725,0,0,0,0,0,0,0,35900
6.85000000,6850,0,0,0,0,0,0,0,35900
6.97500000,6975,0,0,0,0,0,0,0,35900
7.10000000,7100,0,0,0,0,0,0,0,35900
7.22500000,7225,0,0,0,0,0,0,0,35900
7.35000000,7350,0,0,0,0,0,0,0,35900
7.47500000,7475,0,0,0,0,0,0,0,35900
7.60000000,7600,0,0,0,0,0,0,0,35900
7.72500000,7725,0,0,0,0,0,0,0,35900
7.85000000,7850,0,0,0,0,0,0,0,35900
7.97500000,7975,0,0,0,0,0,0,0,35900
8.10000000,8100,0,0,0,0,0,0,0,35900
8.22500000,8225,0,0,0,0,0,0,0,35900
8.35000000,8350,0,0,0,0,0,0,0,35900
8.47500000,8475,0,0,0,0,0,0,0,35900
8.60000000,8600,0,0,0,0,0,0,0,35900
8.72500000,8725,0,0,0,0,0,0,0,35900
8.85000000,8850,0,0,0,0,0,0,0,35900
8.97500000,8975,0,0,0,0,0,0,0,35900
9.10000000,9100,0,0,0,0,0,0,0,35900
9.22500000,9225,0,0,0,0,0,0,0,35900
9.35000000,9350,0,0,0,0,0,0,0,35900
9.47500000,9475,0,0,0,0,0,0,0,35900
9.60000000,9600,0,0,0,0,0,0,0,35900
9.72500000,9725,0,0,0,0,0,0,0,35900
9.85000000,9850,0,0,0,0,0,0,0,35700
9.97500000,9975,0,0,0,0,0,0,0,35700
10.10000000,10100,0,0,0,0,0,0,0,35700
10.22500000,10225,0,0,0,0,0,0,0,35700
10.35000000,10350,0,0,0,0,0,0,0,35700
10.47500000,10475,0,0,0,0,0,0,0,35700
10.60000000,10600,0,0,0,0,0,0,0,35700
10.72500000,10725,0,0,0,0,0,0,0,35700
10.85000000,10850,0,0,0,0,0,0,0,35700
10.97500000,10975,0,0,0,0,0,0,0,35700
11.10000000,11100,0,0,0,0,0,0,0,35700
11.22500000,11225,0,0,0,0,0,0,0,35700
11.35000000,11350,0,0,0,0,0,0,0,35700
11.47500000,11475,0,0,0,0,0,0,0,35700
11.60000000,11600,0,0,0,0,0,0,0,35700
11.72500000,11725,0,0,0,0,0,0,0,35700
11.85000000,11850,0,0,0,0,0,0,0,35700
11.97500000,11975,0,0,0,0,0,0,0,35700
12.10000000,12100,0,0,0,0,0,0,0,35700
12.22500000,12225,0,0,0,0,0,0,0,35700
12.35000000,12350,0,0,0,0,0,0,0,35700
12.47500000,12475,0,0,0,0,0,0,0,35700
12.60000000,12600,0,0,0,0,0,0,0,35700
12.72500000,12725,0,0,0,0,0,0,0,35700
12.85000000,12850,0,0,0,0,0,0,0,35700
12.97500000,12975,0,0,0,0,0,0,0,35700
13.10000000,13100,0,0,0,0,0,0,0,35700
13.22500000,13225,0,0,0,0,0,0,0,35700
13.35000000,13350,0,0,0,0,0,0,0,35700
13.47500000,13475,0,0,0,0,0,0,0,35700
13.60000000,13600,0,0,0,0,0,0,0,35700
13.72500000,13725,0,0,0,0,0,0,0,35600
13.85000000,13850,0,0,0,0,0,0,0,35600
13.97500000,13975,0,0,0,0,0,0,0,35600
14.10000000,14100,0,0,0,0,0,0,0,35600
14.22500000,14225,0,0,0,0,0,0,0,35600
14.35000000,14350,0,0,0,0,0,0,0,35600
14.47500000,14475,0,0,0,0,0,0,0,35600
14.60000000,14600,0,0,0,0,0,0,0,35600
14.72500000,14725,0,0,0,0,0,0,0,35600
14.85000000,14850,0,0,0,0,0,0,0,35600
14.97500000,14975,0,0,0,0,0,0,0,35600
15.10000000,15100,0,0,0,0,0,0,0,35600
15.22500000,15225,0,0,0,0,0,0,0,35600
15.35000000,15350,0,0,0,0,0,0,0,35600
15.47500000,15475,0,0,0,0,0,0,0,35600
15.60000000,15600,0,0,0,0,0,0,0,35600
15.72500000,15725,0,0,0,0,0,0,0,35600
15.85000000,15850,0,0,0,0,0,0,0,35600
15.97500000,15975,0,0,0,0,0,0,0,35600
16.10000000,16100,0,0,0,0,0,0,0,35600
16.22500000,16225,0,0,0,0,0,0,0,35600
16.35000000,16350,0,0,0,0,0,0,0,35600
16.47500000,16475,0,0,0,0,0,0,0,35600
16.60000000,16600,0,0,0,0,0,0,0,35600
16.72500000,16725,0,0,0,0,0,0,0,35600
16.85000000,16850,0,0,0,0,0,0,0,35600
16.97500000,16975,0,0,0,0,0,0,0,35600
17.10000000,17100,0,0,0,0,0,0,0,35600
17.22500000,17225,0,0,0,0,0,0,0,35600
17.35000000,17350,0,0,0,0,0,0,0,35600
17.47500000,17475,0,0,0,0,0,0,0,35600
17.60000000,17600,0,0,0,0,0,0,0,35600
17.72500000,17725,0,0,0,0,0,0,0,35600
17.85000000,17850,0,0,0,0,0,0,0,35600
17.97500000,17975,0,0,0,0,0,0,0,35600
18.10000000,18100,0,0,0,0,0,0,0,35600
18.22500000,18225,0,0,0,0,0,0,0,35600
18.35000000,18350,0,0,0,0,0,0,0,35600
18.47500000,18475,0,0,0,0,0,0,0,35600
18.60000000,18600,0,0,0,0,0,0,0,35600
18.72500000,18725,0,0,0,0,0,0,0,35600
18.85000000,18850,0,0,0,0,0,0,0,35600
18.97500000,18975,0,0,0,0,0,0,0,35600
19.10000000,19100,0,0,0,0,0,0,0,35600
19.22500000,19225,0,0,0,0,0,0,0,35600
19.35000000,19350,0,0,0,0,0,0,0,35600
19.47500000,19475,0,0,0,0,0,0,0,35600
19.60000000,19600,0,0,0,0,0,0,0,35600
19.72500000,19725,0,0,0,0,0,0,0,35400
19.85000000,19850,0,0,0,0,0,0,0,35400
19.97500000,19975,0,0,0,0,0,0,0,35400
20.10000000,20100,0,0,0,0,0,0,0,35400
20.22500000,20225,0,0,0,0,0,0,0,35400
20.35000000,20350,0,0,0,0,0,0,0,35400
20.47500000,20475,0,0,0,0,0,0,0,35400
20.60000000,20600,0,0,0,0,0,0,0,35400
20.72500000,20725,0,0,0,0,0,0,0,35400
20.85000000,20850,0,0,0,0,0,0,0,35400
20.97500000,20975,0,0,0,0,0,0,0,35400
21.10000000,21100,0,0,0,0,0,0,0,35400
21.22500000,21225,0,0,0,0,0,0,0,35400
21.35000000,21350,0,0,0,0,0,0,0,35400
21.47500000,21475,0,0,0,0,0,0,0,35400
21.60000000,21600,0,0,0,0,0,0,0,35400
21.72500000,21725,0,0,0,0,0,0,0,35400
21.85000000,21850,0,0,0,0,0,0,0,35400
21.97500000,21975,0,0,0,0,0,0,0,35400
22.10000000,22100,0,0,0,0,0,0,0,35400
22.22500000,22225,0,0,0,0,0,0,0,35400
22.35000000,22350,0,0,0,0,0,0,0,35400
22.47500000,22475,0,0,0,0,0,0,0,35400
22.60000000,22600,0,0,0,0,0,0,0,35400
22.72500000,22725,0,0,0,0,0,0,0,35400
22.85000000,22850,0,0,0,0,0,0,0,35400
22.97500000,22975,0,0,0,0,0,0,0,35400
23.10000000,23100,0,0,0,0,0,0,0,35300
23.22500000,23225,0,0,0,0,0,0,0,35300
23.35000000,23350,0,0,0,0,0,0,0,35300
23.47500000,23475,0,0,0,0,0,0,0,35300
23.60000000,23600,0,0,0,0,0,0,0,35300
23.72500000,23725,0,0,0,0,0,0,0,35300
23.85000000,23850,0,0,0,0,0,0,0,35300
23.97500000,23975,0,0,0,0,0,0,0,35300
24.10000000,24100,0,0,0,0,0,0,0,35300
24.22500000,24225,0,0,0,0,0,0,0,35300
24.35000000,24350,0,0,0,0,0,0,0,35300
24.47500000,24475,0,0,0,0,0,0,0,35300
24.60000000,24600,0,0,0,0,0,0,0,35300
24.72500000,24725,0,0,0,0,0,0,0,35300
24.85000000,24850,0,0,0,0,0,0,0,35300
24.97500000,24975,0,0,0,0,0,0,0,35300
25.10000000,25100,0,0,0,0,0,0,0,35300
25.22500000,25225,0,0,0,0,0,0,0,35300
25.35000000,25350,0,0,0,0,0,0,0,35300
25.47500000,25475,0,0,0,0,0,0,0,35300
25.60000000,25600,0,0,0,0,0,0,0,35300
25.72500000,25725,0,0,0,0,0,0,0,35300
25.85000000,25850,0,0,0,0,0,0,0,35300
25.97500000,25975,0,0,0,0,0,0,0,35300
26.10000000,26100,0,0,0,0,0,0,0,35300
26.22500000,26225,0,0,0,0,0,0,0,35300
26.35000000,26350,0,0,0,0,0,0,0,35300
26.47500000,26475,0,0,0,0,0,0,0,35300
26.60000000,26600,0,0,0,0,0,0,0,35300
26.72500000,26725,0,0,0,0,0,0,0,35300
26.85000000,26850,0,0,0,0,0,0,0,35300
26.97500000,26975,0,0,0,0,0,0,0,35300
27.10000000,27100,0,0,0,0,0,0,0,35300
27.22500000,27225,0,0,0,0,0,0,0,35300
27.35000000,27350,0,0,0,0,0,0,0,35300
27.47500000,27475,0,0,0,0,0,0,0,35300
27.60000000,27600,0,0,0,0,0,0,0,35300
27.72500000,27725,0,0,0,0,0,0,0,35300
27.85000000,27850,0,0,0,0,0,0,0,35300
27.97500000,27975,0,0,0,0,0,0,0,35300
28.10000000,28100,0,0,0,0,0,0,0,35300
28.22500000,28225,0,0,0,0,0,0,0,35300
28.35000000,28350,0,0,0,0,0,0,0,35300
28.47500000,28475,0,0,0,0,0,0,0,35300
28.60000000,28600,0,0,0,0,0,0,0,35300
28.72500000,28725,0,0,0,0,0,0,0,35200
28.85000000,28850,0,0,0,0,0,0,0,35200
28.97500000,28975,0,0,0,0,0,0,0,35200
29.10000000,29100,0,0,0,0,0,0,0,35200
29.22500000,29225,0,0,0,0,0,0,0,35200
29.35000000,29350,0,0,0,0,0,0,0,35200
29.47500000,29475,0,0,0,0,0,0,0,35200
29.60000000,29600,0,0,0,0,0,0,0,35200
29.72500000,29725,0,0,0,0,0,0,0,35200
29.85000000,29850,0,0,0,0,0,0,0,35200
29.97500000,29975,0,0,0,0,0,0,0,35200
30.10000000,30100,0,0,0,0,0,0,0,35200
30.22500000,30225,0,0,0,0,0,0,0,35200
30.35000000,30350,0,0,0,0,0,0,0,35200
30.47500000,30475,0,0,0,0,0,0,0,35200
30.60000000,30600,0,0,0,0,0,0,0,35200
30.72500000,30725,0,0,0,0,0,0,0,35200
30.85000000,30850,0,0,0,0,0,0,0,35200
30.97500000,30975,0,0,0,0,0,0,0,35200
31.10000000,31100,0,0,0,0,0,0,0,35200
31.22500000,31225,0,0,0,0,0,0,0,35200
31.35000000,31350,0,0,0,0,0,0,0,35200
31.47500000,31475,0,0,0,0,0,0,0,35200
31.60000000,31600,0,0,0,0,0,0,0,35200
31.72500000,31725,0,0,0,0,0,0,0,35200
31.85000000,31850,0,0,0,0,0,0,0,35200
31.97500000,31975,0,0,0,0,0,0,0,35200
32.10000000,32100,0,0,0,0,0,0,0,35200
32.22500000,32225,0,0,0,0,0,0,0,35200
32.35000000,32350,0,0,0,0,0,0,0,35200
32.47500000,32475,0,0,0,0,0,0,0,35200
32.60000000,32600,0,0,0,0,0,0,0,35200
32.72500000,32725,0,0,0,0,0,0,0,35200
32.85000000,32850,0,0,0,0,0,0,0,35200
32.97500000,32975,0,0,0,0,0,0,0,35200
33.10000000,33100,0,0,0,0,0,0,0,35200
33.22500000,33225,0,0,0,0,0,0,0,35200
33.35000000,33350,0,0,0,0,0,0,0,35200
33.47500000,33475,0,0,0,0,0,0,0,35200
33.60000000,33600,0,0,0,0,0,0,0,35200
33.72500000,33725,0,0,0,0,0,0,0,35200
33.85000000,33850,0,0,0,0,0,0,0,35200
33.97500000,33975,0,0,0,0,0,0,0,35200
34.10000000,34100,0,0,0,0,0,0,0,35200
34.22500000,34225,0,0,0,0,0,0,0,35200
34.35000000,34350,0,0,0,0,0,0,0,35200
34.47500000,34475,0,0,0,0,0,0,0,35200
34.60000000,34600,0,0,0,0,0,0,0,35200
34.72500000,34725,0,0,0,0,0,0,0,35200
34.85000000,34850,0,0,0,0,0,0,0,35200
34.97500000,34975,0,0,0,0,0,0,0,35200
35.10000000,35100,0,0,0,0,0,0,0,35200
35.22500000,35225,0,0,0,0,0,0,0,35200
35.35000000,35350,0,0,0,0,0,0,0,35200
35.47500000,35475,0,0,0,0,0,0,0,35200
35.60000000,35600,0,0,0,0,0,0,0,35200
35.72500000,35725,0,0,0,0,0,0,0,35200
35.85000000,35850,0,0,0,0,0,0,0,35200
35.97500000,35975,0,0,0,0,0,0,0,35200
36.10000000,36100,0,0,0,0,0,0,0,35200
36.22500000,36225,0,0,0,0,0,0,0,35200
36.35000000,36350,0,0,0,0,0,0,0,35200
36.47500000,36475,0,0,0,0,0,0,0,35200
36.60000000,36600,0,0,0,0,0,0,0,35200
36.72500000,36725,0,0,0,0,0,0,0,35200
36.85000000,36850,0,0,0,0,0,0,0,35200
36.97500000,36975,0,0,0,0,0,0,0,35000
37.10000000,37100,0,0,0,0,0,0,0,35000
37.22500000,37225,0,0,0,0,0,0,0,35000
37.35000000,37350,0,0,0,0,0,0,0,35000
37.47500000,37475,0,0,0,0,0,0,0,35000
37.60000000,37600,0,0,0,0,0,0,0,35000
37.72500000,37725,0,0,0,0,0,0,0,35000
37.85000000,37850,0,0,0,0,0,0,0,35000
37.97500000,37975,0,0,0,0,0,0,0,35000
38.10000000,38100,0,0,0,0,0,0,0,35000
38.22500000,38225,0,0,0,0,0,0,0,35000
38.35000000,38350,0,0,0,0,0,0,0,35000
38.47500000,38475,0,0,0,0,0,0,0,35000
38.60000000,38600,0,0,0,0,0,0,0,35000
38.72500000,38725,0,0,0,0,0,0,0,35000
38.85000000,38850,0,0,0,0,0,0,0,35000
38.97500000,38975,0,0,0,0,0,0,0,35000
39.10000000,39100,0,0,0,0,0,0,0,35000
39.22500000,39225,0,0,0,0,0,0,0,35000
39.35000000,39350,0,0,0,0,0,0,0,35000
39.47500000,39475,0,0,0,0,0,0,0,35000
39.60000000,39600,0,0,0,0,0,0,0,35000
39.72500000,39725,0,0,0,0,0,0,0,35000
39.85000000,39850,0,0,0,0,0,0,0,35000
39.97500000,39975,0,0,0,0,0,0,0,35000
40.10000000,40100,0,0,0,0,0,0,0,35000
40.22500000,40225,0,0,0,0,0,0,0,35000
40.35000000,40350,0,0,0,0,0,0,0,35000
40.47500000,40475,0,0,0,0,0,0,0,35000
40.60000000,40600,0,0,0,0,0,0,0,35000
40.72500000,40725,0,0,0,0,0,0,0,35000
40.85000000,40850,0,0,0,0,0,0,0,35000
40.97500000,40975,0,0,0,0,0,0,0,35000
41.10000000,41100,0,0,0,0,0,0,0,34900
41.22500000,41225,0,0,0,0,0,0,0,34900
41.35000000,41350,0,0,0,0,0,0,0,34900
41.47500000,41475,0,0,0,0,0,0,0,34900
41.60000000,41600,0,0,0,0,0,0,0,34900
41.72500000,41725,0,0,0,0,0,0,0,34900
41.85000000,41850,0,0,0,0,0,0,0,34900
41.97500000,41975,0,0,0,0,0,0,0,34900
42.10000000,42100,0,0,0,0,0,0,0,34900
42.22500000,42225,0,0,0,0,0,0,0,34900
42.35000000,42350,0,0,0,0,0,0,0,34900
42.47500000,42475,0,0,0,0,0,0,0,34900
42.60000000,42600,0,0,0,0,0,0,0,34900
42.72500000,42725,0,0,0,0,0,0,0,34900
42.85000000,42850,0,0,0,0,0,0,0,34900
42.97500000,42975,0,0,0,0,0,0,0,34900
43.10000000,43100,0,0,0,0,0,0,0,34900
43.22500000,43225,0,0,0,0,0,0,0,34900
43.35000000,43350,0,0,0,0,0,0,0,34900
43.47500000,43475,0,0,0,0,0,0,0,34900
43.60000000,43600,0,0,0,0,0,0,0,34900
43.72500000,43725,0,0,0,0,0,0,0,34900
43.85000000,43850,0,0,0,0,0,0,0,34900
43.97500000,43975,0,0,0,0,0,0,0,34900
44.10000000,44100,0,0,0,0,0,0,0,34900
44.22500000,44225,0,0,0,0,0,0,0,34900
44.35000000,44350,0,0,0,0,0,0,0,34900
44.47500000,44475,0,0,0,0,0,0,0,34900
44.60000000,44600,0,0,0,0,0,0,0,34900
44.72500000,44725,0,0,0,0,0,0,0,34900
44.85000000,44850,0,0,0,0,0,0,0,34900
44.97500000,44975,0,0,0,0,0,0,0,34900
45.10000000,45100,0,0,0,0,0,0,0,34900
45.22500000,45225,0,0,0,0,0,0,0,34900
45.35000000,45350,0,0,0,0,0,0,0,34900
45.47500000,45475,0,0,0,0,0,0,0,34900
45.60000000,45600,0,0,0,0,0,0,0,34900
45.72500000,45725,0,0,0,0,0,0,0,34900
45.85000000,45850,0,0,0,0,0,0,0,34900
45.97500000,45975,0,0,0,0,0,0,0,34900
46.10000000,46100,0,0,0,0,0,0,0,34900
46.22500000,46225,0,0,0,0,0,0,0,34900
46.35000000,46350,0,0,0,0,0,0,0,34900
46.47500000,46475,0,0,0,0,0,0,0,34900
46.60000000,46600,0,0,0,0,0,0,0,34900
46.72500000,46725,0,0,0,0,0,0,0,34900
46.85000000,46850,0,0,0,0,0,0,0,34900
46.97500000,46975,0,0,0,0,0,0,0,34900
47.10000000,47100,0,0,0,0,0,0,0,34900
47.22500000,47225,0,0,0,0,0,0,0,34900
47.35000000,47350,0,0,0,0,0,0,0,34900
47.47500000,47475,0,0,0,0,0,0,0,34900
47.60000000,47600,0,0,0,0,0,0,0,34900
47.72500000,47725,0,0,0,0,0,0,0,34900
47.85000000,47850,0,0,0,0,0,0,0,34900
47.97500000,47975,0,0,0,0,0,0,0,34900
48.10000000,48100,0,0,0,0,0,0,0,34900
48.22500000,48225,0,0,0,0,0,0,0,34900
48.35000000,48350,0,0,0,0,0,0,0,34900
48.47500000,48475,0,0,0,0,0,0,0,34900
48.60000000,48600,0,0,0,0,0,0,0,34900
48.72500000,48725,0,0,0,0,0,0,0,34900
48.85000000,48850,0,0,0,0,0,0,0,34900
48.97500000,48975,0,0,0,0,0,0,0,34900
49.10000000,49100,0,0,0,0,0,0,0,34900
49.22500000,49225,0,0,0,0,0,0,0,34700
49.35000000,49350,0,0,0,0,0,0,0,34700
49.47500000,49475,0,0,0,0,0,0,0,34700
49.60000000,49600,0,0,0,0,0,0,0,34700
49.72500000,49725,0,0,0,0,0,0,0,34700
49.85000000,49850,0,0,0,0,0,0,0,34700
49.97500000,49975,0,0,0,0,0,0,0,34700
50.10000000,50100,0,0,0,0,0,0,0,34700
50.22500000,50225,0,0,0,0,0,0,0,34700
50.35000000,50350,0,0,0,0,0,0,0,34700
50.47500000,50475,0,0,0,0,0,0,0,34700
50.60000000,50600,0,0,0,0,0,0,0,34700
50.72500000,50725,0,0,0,0,0,0,0,34700
50.85000000,50850,0,0,0,0,0,0,0,34700
50.97500000,50975,0,0,0,0,0,0,0,34700
51.10000000,51100,0,0,0,0,0,0,0,34700
51.22500000,51225,0,0,0,0,0,0,0,34700
51.35000000,51350,0,0,0,0,0,0,0,34700
51.47500000,51475,0,0,0,0,0,0,0,34700
51.60000000,51600,0,0,0,0,0,0,0,34700
51.72500000,51725,0,0,0,0,0,0,0,34700
51.85000000,51850,0,0,0,0,0,0,0,34700
51.97500000,51975,0,0,0,0,0,0,0,34700
52.10000000,52100,0,0,0,0,0,0,0,34700
52.22500000,52225,0,0,0,0,0,0,0,34700
52.35000000,52350,0,0,0,0,0,0,0,34700
52.47500000,52475,0,0,0,0,0,0,0,34700
52.60000000,52600,0,0,0,0,0,0,0,34700
52.72500000,52725,0,0,0,0,0,0,0,34700
52.85000000,52850,0,0,0,0,0,0,0,34600
52.97500000,52975,0,0,0,0,0,0,0,34600
53.10000000,53100,0,0,0,0,0,0,0,34600
53.22500000,53225,0,0,0,0,0,0,0,34600
53.35000000,53350,0,0,0,0,0,0,0,34600
53.47500000,53475,0,0,0,0,0,0,0,34600
53.60000000,53600,0,0,0,0,0,0,0,34600
53.72500000,53725,0,0,0,0,0,0,0,34600
53.85000000,53850,0,0,0,0,0,0,0,34600
53.97500000,53975,0,0,0,0,0,0,0,34600
54.10000000,54100,0,0,0,0,0,0,0,34600
54.22500000,54225,0,0,0,0,0,0,0,34600
54.35000000,54350,0,0,0,0,0,0,0,34600
54.47500000,54475,0,0,0,0,0,0,0,34600
54.60000000,54600,0,0,0,0,0,0,0,34600
54.72500000,54725,0,0,0,0,0,0,0,34600
54.85000000,54850,0,0,0,0,0,0,0,34600
54.97500000,54975,0,0,0,0,0,0,0,34600
55.10000000,55100,0,0,0,0,0,0,0,34600
55.22500000,55225,0,0,0,0,0,0,0,34600
55.35000000,55350,0,0,0,0,0,0,0,34600
55.47500000,55475,0,0,0,0,0,0,0,34600
55.60000000,55600,0,0,0,0,0,0,0,34600
55.72500000,55725,0,0,0,0,0,0,0,34600
55.85000000,55850,0,0,0,0,0,0,0,34600
55.97500000,55975,0,0,0,0,0,0,0,34600
56.10000000,56100,0,0,0,0,0,0,0,34600
56.22500000,56225,0,0,0,0,0,0,0,34600
56.35000000,56350,0,0,0,0,0,0,0,34600
56.47500000,56475,0,0,0,0,0,0,0,34600
56.60000000,56600,0,0,0,0,0,0,0,34600
56.72500000,56725,0,0,0,0,0,0,0,34600
56.85000000,56850,0,0,0,0,0,0,0,34600
56.97500000,56975,0,0,0,0,0,0,0,34600
57.10000000,57100,0,0,0,0,0,0,0,34600
57.22500000,57225,0,0,0,0,0,0,0,34600
57.35000000,57350,0,0,0,0,0,0,0,34600
57.47500000,57475,0,0,0,0,0,0,0,34600
57.60000000,57600,0,0,0,0,0,0,0,34600
57.72500000,57725,0,0,0,0,0,0,0,34600
57.85000000,57850,0,0,0,0,0,0,0,34600
57.97500000,57975,0,0,0,0,0,0,0,34600
58.10000000,58100,0,0,0,0,0,0,0,34600
58.22500000,58225,0,0,0,0,0,0,0,34600
58.35000000,58350,0,0,0,0,0,0,0,34600
58.47500000,58475,0,0,0,0,0,0,0,34600
58.60000000,58600,0,0,0,0,0,0,0,34600
58.72500000,58725,0,0,0,0,0,0,0,34600
58.85000000,58850,0,0,0,0,0,0,0,34600
58.97500000,58975,0,0,0,0,0,0,0,34600
59.10000000,59100,0,0,0,0,0,0,0,34600
59.22500000,59225,0,0,0,0,0,0,0,34600
59.35000000,59350,0,0,0,0,0,0,0,34600
59.47500000,59475,0,0,0,0,0,0,0,34600
59.60000000,59600,0,0,0,0,0,0,0,34600
59.72500000,59725,0,0,0,0,0,0,0,34600
59.85000000,59850,0,0,0,0,0,0,0,34600
59.97500000,59975,0,0,0,0,0,0,0,34600
60.10000000,60100,0,0,0,0,0,0,0,34600
60.22500000,60225,0,0,0,0,0,0,0,34600
60.35000000,60350,0,0,0,0,0,0,0,34600
60.47500000,60475,369885060,-1220509133,164800,0,0,0,0,34600
60.60000000,60600,369885060,-1220509133,164800,0,0,0,0,34600
60.72500000,60725,369885060,-1220509133,164800,0,0,0,0,34600
60.85000000,60850,369885060,-1220509133,164800,0,0,0,0,34600
60.97500000,60975,369885060,-1220509133,164800,0,0,0,0,34600
61.10000000,61100,369885060,-1220509133,164800,0,0,0,0,34600
61.22500000,61225,369885060,-1220509133,164800,0,0,0,0,34600
61.35000000,61350,369885060,-1220509133,164800,0,0,0,0,34600
61.47500000,61475,369885060,-1220509133,164800,0,0,0,0,34600
61.60000000,61600,369885060,-1220509133,164800,0,0,0,0,34600
61.72500000,61725,369885060,-1220509133,164800,0,0,0,0,34600
61.85000000,61850,369885060,-1220509133,164800,0,0,0,0,34600
61.97500000,61975,369885060,-1220509133,164800,0,0,0,0,34600
62.10000000,62100,369885060,-1220509133,164800,0,0,0,0,34600
62.22500000,62225,369885060,-1220509133,164800,0,0,0,0,34600
62.35000000,62350,369885060,-1220509133,164800,0,0,0,0,34600
62.47500000,62475,369885060,-1220509133,164800,0,39,39,-39,34600
62.60000000,62600,369885060,-1220509133,164800,0,-1,-2,2,34500
62.72500000,62725,369885060,-1220509133,164800,0,-1,-3,3,34500
62.85000000,62850,369885060,-1220509133,164800,0,-1,-4,4,34500
62.97500000,62975,369885060,-1220509133,164800,0,-1,-6,5,34500
63.10000000,63100,369885060,-1220509133,164800,0,-2,-7,5,34500
63.22500000,63225,369885060,-1220509133,164800,0,-1,-7,6,34500
63.35000000,63350,369885060,-1220509133,164800,0,-2,-9,6,34500
63.47500000,63475,369885060,-1220509133,164800,0,-2,-9,5,34500
63.60000000,63600,369885060,-1220509133,164800,0,-2,29,-35,34500
63.72500000,63725,369885060,-1220509133,164800,0,-2,28,-35,34500
63.85000000,63850,369885060,-1220509133,164800,0,-2,-13,5,34500
63.97500000,63975,369885060,-1220509133,164800,0,-2,-14,5,34500
64.10000000,64100,369885060,-1220509133,164800,0,-2,-15,6,34500
64.22500000,64225,369885060,-1220509133,164800,0,-2,24,6,34500
64.35000000,64350,369885060,-1220509133,164800,0,-2,23,6,34500
64.47500000,64475,369885060,-1220509133,164800,0,-2,-18,6,34500
64.60000000,64600,369885060,-1220509133,164800,0,-2,21,6,34500
64.72500000,64725,369885060,-1220509133,164800,0,-2,20,6,34500
64.85000000,64850,369885060,-1220509133,164800,0,-2,-21,6,34500
64.97500000,64975,369885060,-1220509133,163800,-1000,-2,-22,6,34500
65.10000000,65100,369885060,-1220509133,164800,0,-3,18,-34,34500
65.22500000,65225,369885060,-1220509133,164800,0,37,-23,6,34500
65.35000000,65350,369885060,-1220509133,164800,0,37,-24,6,34500
65.47500000,65475,369885060,-1220509133,164800,0,-3,15,6,34500
65.60000000,65600,369885060,-1220509133,164800,0,-3,-25,6,34500
65.72500000,65725,369885060,-1220509133,164800,0,-3,-26,6,34500
65.85000000,65850,369885060,-1220509133,164800,0,-3,13,7,34500
65.97500000,65975,369885060,-1220509133,164800,0,-3,13,7,34500
66.10000000,66100,369885060,-1220509133,164800,0,-2,13,7,34500
66.22500000,66225,369885060,-1220509133,163800,-1000,-2,-27,8,34500
66.35000000,66350,369885060,-1220509133,163800,-1000,-2,-28,9,34500
66.47500000,66475,369885060,-1220509133,164800,0,-2,12,-32,34300
66.60000000,66600,369885060,-1220509133,164800,0,-2,12,8,34300
66.72500000,66725,369885060,-1220509133,164800,0,-2,11,8,34300
66.85000000,66850,369885060,-1220509133,164800,0,-2,-29,9,34300
66.97500000,66975,369885060,-1220509133,164800,0,-3,-29,10,34300
67.10000000,67100,369885060,-1220509133,164800,0,-3,10,9,34300
67.22500000,67225,369885060,-1220509133,164800,0,-3,10,-31,34300
67.35000000,67350,369885060,-1220509133,164800,0,-3,9,-31,34300
67.47500000,67475,369885060,-1220509133,164800,0,-3,10,9,34300
67.60000000,67600,369885060,-1220509133,164800,0,-3,-31,10,34300
67.72500000,67725,369885060,-1220509133,164800,0,-3,-31,11,34300
67.85000000,67850,369885060,-1220509133,164800,0,-3,9,11,34300
67.97500000,67975,369885060,-1220509133,163800,-1000,-3,8,11,34300
68.10000000,68100,369884970,-1220509133,164800,0,-3,8,-30,34300
68.22500000,68225,369885060,-1220509133,164800,0,38,8,10,34300
68.35000000,68350,369885060,-1220509133,164800,0,38,8,10,34300
68.47500000,68475,369885060,-1220509133,164800,0,-2,8,11,34300
68.60000000,68600,369885060,-1220509133,164800,0,-2,-32,12,34300
68.72500000,68725,369885060,-1220509133,163800,-1000,-3,-33,11,34300
68.85000000,68850,369885060,-1220509133,164800,0,-3,7,-29,34300
68.97500000,68975,369885060,-1220509133,164800,0,-3,7,-30,34300
69.10000000,69100,369885060,-1220509133,164800,0,-3,7,11,34300
69.22500000,69225,369885060,-1220509133,164800,0,-3,7,11,34300
69.35000000,69350,369885060,-1220509133,164800,0,-3,6,11,34300
69.47500000,69475,369885060,-1220509133,163800,-1000,-3,6,11,34300
69.60000000,69600,369885060,-1220509133,163800,-1000,-3,6,-29,34300
69.72500000,69725,369885060,-1220509133,164800,0,-3,6,-28,34300
69.85000000,69850,369885060,-1220509133,164800,0,-2,6,12,34300
69.97500000,69975,369885060,-1220509133,164800,0,-2,6,11,34300
70.10000000,70100,369885060,-1220509133,163800,-1000,-2,-34,11,34300
70.22500000,70225,369885060,-1220509133,164800,0,-2,6,-28,34300
70.35000000,70350,369885060,-1220509133,164800,0,-2,6,-27,34300
70.47500000,70475,369885060,-1220509133,164800,0,-2,6,12,34300
70.60000000,70600,369885060,-1220509133,164800,0,-1,7,12,34300
70.72500000,70725,369885060,-1220509133,164800,0,-2,7,11,34300
70.85000000,70850,369885060,-1220509133,164800,0,-2,7,-29,34300
70.97500000,70975,369885060,-1220509133,164800,0,-2,7,-29,34300
71.10000000,71100,369885060,-1220509133,164800,0,-2,6,12,34300
71.22500000,71225,369885060,-1220509133,164800,0,-2,6,12,34200
71.35000000,71350,369885060,-1220509133,164800,0,-2,6,12,34200
71.47500000,71475,369884970,-1220509133,163800,-1000,-2,-34,11,34200
71.60000000,71600,369885060,-1220509133,163800,-1000,38,6,-29,34200
71.72500000,71725,369885060,-1220509133,164800,0,38,6,-28,34200
71.85000000,71850,369885060,-1220509133,164800,0,-2,6,12,34200
71.97500000,71975,369885060,-1220509133,164800,0,-1,6,12,34200
72.10000000,72100,369885060,-1220509133,164800,0,-1,7,12,34200
72.22500000,72225,369885060,-1220509133,164800,0,-1,7,-28,34200
72.35000000,72350,369885060,-1220509133,164800,0,-1,7,-28,34300
72.47500000,72475,369885060,-1220509133,164800,0,0,7,12,34300
72.60000000,72600,369885060,-1220509133,164800,0,1,-32,12,34300
72.72500000,72725,369885060,-1220509133,164800,0,1,-32,12,34300
72.85000000,72850,369885060,-1220509133,164800,0,1,8,-28,34300
72.97500000,72975,369885060,-1220509133,164800,0,0,8,-28,34300
73.10000000,73100,369885060,-1220509133,164800,0,0,8,12,34200
73.22500000,73225,369885060,-1220509133,164800,0,0,8,12,34200
73.35000000,73350,369885060,-1220509133,164800,0,0,7,12,34200
73.47500000,73475,369885060,-1220509133,163800,-1000,0,7,11,34200
73.60000000,73600,369885060,-1220509133,164800,0,0,8,-29,34200
73.72500000,73725,369885060,-1220509133,164800,0,0,7,-28,34300
73.85000000,73850,369885060,-1220509133,164800,0,0,-33,12,34300
73.97500000,73975,369885060,-1220509133,164800,0,0,-33,12,34300
74.10000000,74100,369885060,-1220509133,164800,0,0,7,12,34300
74.22500000,74225,369885060,-1220509133,163800,-1000,-1,8,11,34300
74.35000000,74350,369885060,-1220509133,163800,-1000,-1,7,11,34300
74.47500000,74475,369885060,-1220509133,163800,-1000,-1,8,51,34300
74.60000000,74600,369885060,-1220509133,163800,-1000,-2,8,11,34300
74.72500000,74725,369885060,-1220509133,163800,-1000,-1,8,10,34300
74.85000000,74850,369885060,-1220509133,163800,-1000,-1,-32,10,34200
74.97500000,74975,369885060,-1220509133,163800,-1000,-1,8,10,34200
75.10000000,75100,369885060,-1220509133,163800,-1000,-2,7,11,34200
75.22500000,75225,369885060,-1220509133,163800,-1000,-2,8,11,34200
75.35000000,75350,369885060,-1220509133,163800,-1000,-2,7,10,34200
75.47500000,75475,369885060,-1220509133,163800,-1000,-2,7,11,34200
75.60000000,75600,369885060,-1220509133,163800,-1000,-2,8,11,34200
75.72500000,75725,369885060,-1220509133,163800,-1000,-2,8,11,34200
75.85000000,75850,369885060,-1220509133,163800,-1000,-2,8,10,34200
75.97500000,75975,369885060,-1220509133,163800,-1000,-2,-32,10,34200
76.10000000,76100,369885060,-1220509133,163800,-1000,-2,-32,11,34200
76.22500000,76225,369885060,-1220509133,163800,-1000,-2,8,11,34200
76.35000000,76350,369885060,-1220509133,163800,-1000,-2,8,10,34200
76.47500000,76475,369885060,-1220509133,163800,-1000,-2,8,10,34200
76.60000000,76600,369885060,-1220509133,163800,-1000,-2,9,10,34200
76.72500000,76725,369885060,-1220509133,163800,-1000,-2,8,11,34200
76.85000000,76850,369885060,-1220509133,163800,-1000,-2,8,11,34200
76.97500000,76975,369885060,-1220509133,163800,-1000,-2,-31,10,34200
77.10000000,77100,369885060,-1220509133,163800,-1000,-2,-32,10,34200
77.22500000,77225,369885060,-1220509133,163800,-1000,-2,8,10,34200
77.35000000,77350,369885060,-1220509133,163800,-1000,-2,9,10,34200
77.47500000,77475,369885060,-1220509133,163800,-1000,-2,9,9,34200
77.60000000,77600,369885060,-1220509133,163800,-1000,-2,9,9,34200
77.72500000,77725,369885060,-1220509133,163800,-1000,-2,9,9,34200
77.85000000,77850,369885060,-1220509133,163800,-1000,-2,9,9,34200
77.97500000,77975,369885060,-1220509133,163800,-1000,38,-31,8,34200
78.10000000,78100,369885060,-1220509133,163800,-1000,37,-31,8,34200
78.22500000,78225,369885060,-1220509133,163800,-1000,-3,9,8,34200
78.35000000,78350,369885060,-1220509133,163800,-1000,-3,9,8,34200
78.47500000,78475,369885060,-1220509133,163800,-1000,-3,10,9,34200
78.60000000,78600,369885060,-1220509133,163800,-1000,-3,10,10,34200
78.72500000,78725,369885060,-1220509133,163800,-1000,-3,11,9,34200
78.85000000,78850,369885060,-1220509133,163800,-1000,-3,-29,9,34200
78.97500000,78975,369885060,-1220509133,163800,-1000,-4,11,9,34200
79.10000000,79100,369885060,-1220509133,163800,-1000,-4,11,9,34200
79.22500000,79225,369885060,-1220509133,163800,-1000,-4,11,9,34200
79.35000000,79350,369885060,-1220509133,163800,-1000,-4,11,10,34200
79.47500000,79475,369885060,-1220509133,163800,-1000,-4,12,11,34200
79.60000000,79600,369885060,-1220509133,163800,-1000,-4,-28,11,34200
79.72500000,79725,369885060,-1220509133,163800,-1000,-4,-28,10,34200
79.85000000,79850,369885060,-1220509133,163800,-1000,-4,12,10,34200
79.97500000,79975,369885060,-1220509133,163800,-1000,-4,12,10,34200
80.10000000,80100,369885060,-1220509133,163800,-1000,-4,12,10,34200
80.22500000,80225,369884970,-1220509133,163800,-1000,-4,13,10,34200
80.35000000,80350,369884970,-1220509133,163800,-1000,-5,13,9,34200
80.47500000,80475,369885060,-1220509133,163800,-1000,35,-27,9,34200
80.60000000,80600,369885060,-1220509133,163800,-1000,-5,13,9,34200
80.72500000,80725,369885060,-1220509133,163800,-1000,-5,13,9,34200
80.85000000,80850,369885060,-1220509133,163800,-1000,-5,13,9,34200
80.97500000,80975,369885060,-1220509133,163800,-1000,-5,-26,9,34200
81.10000000,81100,369885060,-1220509133,163800,-1000,-5,-27,10,34200
81.22500000,81225,369885060,-1220509133,163800,-1000,-5,14,10,34200
81.35000000,81350,369885060,-1220509133,163800,-1000,-5,14,9,34200
81.47500000,81475,369885060,-1220509133,163800,-1000,-5,13,10,34200
81.60000000,81600,369885060,-1220509133,163800,-1000,-5,-26,11,34200
81.72500000,81725,369885060,-1220509133,163800,-1000,-5,-27,12,34200
81.85000000,81850,369884970,-1220509133,163800,-1000,-5,14,13,34200
81.97500000,81975,369885060,-1220509133,163800,-1000,35,14,15,34200
82.10000000,82100,369885060,-1220509133,163800,-1000,35,15,17,34200
82.22500000,82225,369885060,-1220509133,163800,-1000,-5,-24,18,34200
82.35000000,82350,369885060,-1220509133,163800,-1000,-5,-24,18,34200
82.47500000,82475,369885060,-1220509133,163800,-1000,-5,17,18,34200
82.60000000,82600,369885060,-1220509133,163800,-1000,-5,-22,18,34000
82.72500000,82725,369885060,-1220509133,162800,-2000,-5,-21,17,34000
82.85000000,82850,369885060,-1220509133,163800,-1000,-5,19,-22,34000
82.97500000,82975,369885060,-1220509133,163800,-1000,-5,19,19,34000
83.10000000,83100,369885060,-1220509133,163800,-1000,-5,19,18,34000
83.22500000,83225,369885060,-1220509133,162800,-2000,-5,-21,17,34000
83.35000000,83350,369885060,-1220509133,162800,-2000,-5,-21,17,34000
83.47500000,83475,369884970,-1220509133,162800,-2000,-5,19,57,34000
83.60000000,83600,369885060,-1220509133,162800,-2000,115,-21,17,34000
83.72500000,83725,369885060,-1220509133,162800,-2000,115,-21,16,34000
83.85000000,83850,369885060,-1220509133,162800,-2000,35,19,16,34000
83.97500000,83975,369885060,-1220509133,162800,-2000,35,-20,16,34000
84.10000000,84100,369885060,-1220509133,162800,-2000,35,-21,17,34000
84.22500000,84225,369885060,-1220509133,162800,-2000,36,19,16,34000
84.35000000,84350,369885060,-1220509133,162800,-2000,36,19,16,34000
84.47500000,84475,369885060,-1220509133,162800,-2000,36,-21,16,34000
84.60000000,84600,369885060,-1220509133,162800,-2000,36,20,15,34000
84.72500000,84725,369885060,-1220509133,162800,-2000,36,20,15,34000
84.85000000,84850,369885060,-1220509133,162800,-2000,35,-20,14,34000
84.97500000,84975,369885060,-1220509133,162800,-2000,35,20,14,34000
85.10000000,85100,369885060,-1220509133,162800,-2000,35,20,14,34000
85.22500000,85225,369885060,-1220509133,162800,-2000,35,-20,14,34000
85.35000000,85350,369885060,-1220509133,162800,-2000,35,-20,14,34000
85.47500000,85475,369885060,-1220509133,162800,-2000,35,20,15,34000
85.60000000,85600,369885060,-1220509133,162800,-2000,35,-20,15,34000
85.72500000,85725,369885060,-1220509133,162800,-2000,36,-20,15,34000
85.85000000,85850,369885060,-1220509133,162800,-2000,36,20,14,34000
85.97500000,85975,369885150,-1220509133,162800,-2000,36,-20,15,34000
86.10000000,86100,369885150,-1220509133,162800,-2000,36,-20,15,34000
86.22500000,86225,369885150,-1220509133,162800,-2000,-4,21,16,34000
86.35000000,86350,369885150,-1220509133,162800,-2000,-4,21,15,34000
86.47500000,86475,369885150,-1220509133,162800,-2000,-4,-19,14,34000
86.60000000,86600,369885150,-1220509133,162800,-2000,-4,21,14,34000
86.72500000,86725,369885150,-1220509133,162800,-2000,-4,21,14,34000
86.85000000,86850,369885150,-1220509133,162800,-2000,-4,-19,14,34000
86.97500000,86975,369885150,-1220509133,162800,-2000,-4,21,14,34000
87.10000000,87100,369885150,-1220509133,162800,-2000,-4,21,14,34000
87.22500000,87225,369885150,-1220509133,162800,-2000,-5,-19,14,34000
87.35000000,87350,369885150,-1220509133,162800,-2000,-4,-18,13,34000
87.47500000,87475,369885150,-1220509133,162800,-2000,-5,22,13,34000
87.60000000,87600,369885150,-1220509133,162800,-2000,-4,-18,13,34000
87.72500000,87725,369885060,-1220509133,162800,-2000,-4,-18,13,34000
87.85000000,87850,369885150,-1220509133,162800,-2000,36,22,12,34000
87.97500000,87975,369885150,-1220509133,162800,-2000,-4,-18,12,34000
88.10000000,88100,369885150,-1220509133,162800,-2000,-4,-17,12,34000
88.22500000,88225,369885150,-1220509133,162800,-2000,-4,-17,12,34000
88.35000000,88350,369885150,-1220509133,162800,-2000,-4,-17,12,33900
88.47500000,88475,369885150,-1220509133,162800,-2000,-4,23,13,33900
88.60000000,88600,369885150,-1220509133,162800,-2000,-4,-17,13,33900
88.72500000,88725,369885150,-1220509133,162800,-2000,-3,-16,12,33900
88.85000000,88850,369885150,-1220509133,162800,-2000,-4,24,12,33900
88.97500000,88975,369885150,-1220509133,162800,-2000,-4,-16,12,33900
89.10000000,89100,369885150,-1220509133,162800,-2000,-4,-16,12,33900
89.22500000,89225,369885150,-1220509133,162800,-2000,-4,24,12,33900
89.35000000,89350,369885150,-1220509133,162800,-2000,-4,24,12,33900
89.47500000,89475,369885150,-1220509133,162800,-2000,-4,-16,13,33900
89.60000000,89600,369885150,-1220509133,161800,-3000,-4,-16,13,33900
89.72500000,89725,369885150,-1220509133,161800,-3000,-3,-16,12,34000
89.85000000,89850,369885150,-1220509133,162800,-2000,37,24,-28,34000
89.97500000,89975,369885150,-1220509133,162800,-2000,-3,-16,12,34000
90.10000000,90100,369885150,-1220509133,162800,-2000,-3,-16,12,34000
90.22500000,90225,369885150,-1220509133,162800,-2000,-3,24,12,34000
90.35000000,90350,369885150,-1220509133,161800,-3000,-3,24,11,34000
90.47500000,90475,369885150,-1220509133,162800,-2000,-3,-16,-27,34000
90.60000000,90600,369885150,-1220509133,162800,-2000,-3,-16,13,33900
90.72500000,90725,369885150,-1220509133,162800,-2000,-3,-16,12,33900
90.85000000,90850,369885150,-1220509133,162800,-2000,-3,25,11,33900
90.97500000,90975,369885150,-1220509133,162800,-2000,-3,-15,-29,33900
91.10000000,91100,369885150,-1220509133,162800,-2000,-3,-16,-28,33900
91.22500000,91225,369885150,-1220509133,162800,-2000,-3,25,12,33900
91.35000000,91350,369885150,-1220509133,162800,-2000,-3,25,11,33900
91.47500000,91475,369885150,-1220509133,162800,-2000,-3,-15,11,33900
91.60000000,91600,369885150,-1220509133,161800,-3000,-3,-15,11,33900
91.72500000,91725,369885150,-1220509133,161800,-3000,-3,-15,11,33900
91.85000000,91850,369885150,-1220509133,162800,-2000,-3,25,-28,33900
91.97500000,91975,369885150,-1220509133,162800,-2000,-3,-15,12,33900
92.10000000,92100,369885150,-1220509133,162800,-2000,-2,-15,12,33900
92.22500000,92225,369885150,-1220509133,162800,-2000,-2,-15,11,33900
92.35000000,92350,369885150,-1220509133,161800,-3000,-2,-15,11,33900
92.47500000,92475,369885150,-1220509133,162800,-2000,-2,25,-29,33900
92.60000000,92600,369885150,-1220509133,162800,-2000,38,-15,10,33900
92.72500000,92725,369885150,-1220509133,162800,-2000,38,-15,10,33900
92.85000000,92850,369885150,-1220509133,162800,-2000,-2,26,10,33900
92.97500000,92975,369885150,-1220509133,162800,-2000,-2,-14,10,33900
93.10000000,93100,369885150,-1220509133,161800,-3000,-2,-14,11,33900
93.22500000,93225,369885150,-1220509133,162800,-2000,-2,-14,-29,33900
93.35000000,93350,369885150,-1220509133,162800,-2000,-2,-14,-30,33900
93.47500000,93475,369885150,-1220509133,162800,-2000,-2,26,10,33900
93.60000000,93600,369885150,-1220509133,162800,-2000,-2,-14,11,33900
93.72500000,93725,369885150,-1220509133,162800,-2000,-2,-14,12,33900
93.85000000,93850,369885150,-1220509133,161800,-3000,-2,-14,11,33900
93.97500000,93975,369885150,-1220509133,161800,-3000,-2,26,-29,33900
94.10000000,94100,369885150,-1220509133,162800,-2000,-2,26,-29,33900
94.22500000,94225,369885150,-1220509133,162800,-2000,-2,-14,11,33900
94.35000000,94350,369885150,-1220509133,162800,-2000,-2,-14,11,33900
94.47500000,94475,369885150,-1220509133,162800,-2000,-2,-14,10,33900
94.60000000,94600,369885150,-1220509133,162800,-2000,-2,27,-30,33900
94.72500000,94725,369885150,-1220509133,162800,-2000,-2,26,-30,33900
94.85000000,94850,369885150,-1220509133,162800,-2000,-2,-13,10,33900
94.97500000,94975,369885150,-1220509133,162800,-2000,-2,-13,90,33900
95.10000000,95100,369885150,-1220509133,161800,-3000,-2,-13,91,33900
95.22500000,95225,369885150,-1220509133,161800,-3000,-2,27,11,33900
95.35000000,95350,369885150,-1220509133,161800,-3000,-2,-13,10,33900
95.47500000,95475,369885150,-1220509133,161800,-3000,-2,-13,10,33900
95.60000000,95600,369885150,-1220509133,161800,-3000,-2,-13,10,33900
95.72500000,95725,369885150,-1220509133,161800,-3000,-2,-13,10,33900
95.85000000,95850,369885150,-1220509133,161800,-3000,-1,27,10,33900
95.97500000,95975,369885150,-1220509133,161800,-3000,-1,-13,10,33700
96.10000000,96100,369885150,-1220509133,161800,-3000,-2,-12,10,33700
96.22500000,96225,369885060,-1220509133,161800,-3000,-82,-13,10,33700
96.35000000,96350,369885060,-1220509133,161800,-3000,-2,27,10,33700
96.47500000,96475,369885060,-1220509133,161800,-3000,-2,27,9,33700
96.60000000,96600,369885060,-1220509133,161800,-3000,-2,-13,9,33700
96.72500000,96725,369885060,-1220509133,161800,-3000,-2,-13,9,33700
96.85000000,96850,369885060,-1220509133,161800,-3000,-2,-13,9,33700
96.97500000,96975,369885060,-1220509133,161800,-3000,-2,27,9,33700
97.10000000,97100,369885060,-1220509133,161800,-3000,-2,27,9,33700
97.22500000,97225,369885060,-1220509133,161800,-3000,-2,-13,9,33700
97.35000000,97350,369885060,-1220509133,161800,-3000,-2,-13,9,33700
97.47500000,97475,369885060,-1220509133,161800,-3000,-2,-14,9,33700
97.60000000,97600,369885060,-1220509133,161800,-3000,-2,26,9,33700
97.72500000,97725,369885060,-1220509133,161800,-3000,-2,26,9,33700
97.85000000,97850,369885060,-1220509133,161800,-3000,-2,-14,8,33700
97.97500000,97975,369885060,-1220509133,161800,-3000,-2,-14,8,33700
98.10000000,98100,369885060,-1220509133,161800,-3000,-2,-14,8,33700
98.22500000,98225,369885060,-1220509133,161800,-3000,-2,26,8,33700
98.35000000,98350,369885060,-1220509133,161800,-3000,-2,-14,8,33700
98.47500000,98475,369885060,-1220509133,161800,-3000,-2,-14,8,33700
98.60000000,98600,369885060,-1220509133,161800,-3000,-2,-14,-73,33700
98.72500000,98725,369885060,-1220509133,161800,-3000,-2,-14,-73,33700
98.85000000,98850,369885060,-1220509133,161800,-3000,-3,25,-33,33700
98.97500000,98975,369885060,-1220509133,161800,-3000,0,-10,-34,33700
99.10000000,99100,369885060,-1220509133,161800,-3000,-2,-12,-34,33900
99.22500000,99225,369885060,-1220509133,161800,-3000,-1,-11,-33,33900
99.35000000,99350,369885060,-1220509133,161800,-3000,-3,27,-32,33900
99.47500000,99475,369885060,-1220509133,161800,-3000,-3,28,-32,33900
99.60000000,99600,369885060,-1220509133,161800,-3000,-3,-12,-31,33900
99.72500000,99725,369885060,-1220509133,162800,-2000,-4,-10,-31,34000
99.85000000,99850,369885060,-1220509133,162800,-2000,-4,-10,10,34000
99.97500000,99975,369885060,-1220509133,161800,-3000,-4,32,11,34000
100.10000000,100100,369885060,-1220509133,161800,-3000,-4,33,11,34000
100.22500000,100225,369885060,-1220509133,162800,-2000,-3,-6,-29,34000
100.35000000,100350,369885060,-1220509133,162800,-2000,-3,-6,11,34000
100.47500000,100475,369885060,-1220509133,162800,-2000,-3,-6,11,34000
100.60000000,100600,369885060,-1220509133,162800,-2000,-3,-5,11,34000
100.72500000,100725,369885060,-1220509133,161800,-3000,-4,-5,11,34000
100.85000000,100850,369885060,-1220509133,162800,-2000,-4,-5,-28,34000
100.97500000,100975,369885060,-1220509133,162800,-2000,-5,-6,12,34000
101.10000000,101100,369885060,-1220509133,162800,-2000,-5,-6,13,34000
101.22500000,101225,369885060,-1220509133,162800,-2000,-5,-4,14,34000
101.35000000,101350,369885060,-1220509133,162800,-2000,-5,37,-26,34200
101.47500000,101475,369885060,-1220509133,162800,-2000,-5,38,-27,34200
101.60000000,101600,369885060,-1220509133,162800,-2000,-6,-2,14,34200
101.72500000,101725,369885060,-1220509133,162800,-2000,-6,-1,15,34200
101.85000000,101850,369885060,-1220509133,162800,-2000,-6,-1,15,34000
101.97500000,101975,369885060,-1220509133,162800,-2000,-6,0,-25,34000
102.10000000,102100,369885060,-1220509133,162800,-2000,-6,0,-26,34000
102.22500000,102225,369885060,-1220509133,162800,-2000,-6,2,14,34000
102.35000000,102350,369885060,-1220509133,162800,-2000,-6,1,14,34000
102.47500000,102475,369885060,-1220509133,161800,-3000,-6,1,13,34000
102.60000000,102600,369885060,-1220509133,162800,-2000,-7,1,-27,34000
102.72500000,102725,369885060,-1220509133,162800,-2000,-7,1,-28,34000
102.85000000,102850,369885060,-1220509133,162800,-2000,-7,1,11,34000
102.97500000,102975,369885060,-1220509133,162800,-2000,-7,1,10,34000
103.10000000,103100,369885060,-1220509133,161800,-3000,-8,1,11,34000
103.22500000,103225,369885060,-1220509133,162800,-2000,-8,1,-30,34000
103.35000000,103350,369885060,-1220509133,162800,-2000,-8,1,10,34000
103.47500000,103475,369885060,-1220509133,162800,-2000,-8,1,10,34000
103.60000000,103600,369885060,-1220509133,162800,-2000,-8,0,10,34000
103.72500000,103725,369885060,-1220509133,162800,-2000,-8,1,10,34000
103.85000000,103850,369885060,-1220509133,162800,-2000,-8,1,9,34000
103.97500000,103975,369885060,-1220509133,162800,-2000,-8,0,-30,34000
104.10000000,104100,369885060,-1220509133,162800,-2000,-9,1,-32,33900
104.22500000,104225,369885060,-1220509133,162800,-2000,-8,0,7,33900
104.35000000,104350,369885060,-1220509133,162800,-2000,-7,-2,-1,33900
104.47500000,104475,369885060,-1220509133,162800,-2000,-7,-3,-3,33900
104.60000000,104600,369885060,-1220509133,162800,-2000,-7,-3,-3,33900
104.72500000,104725,369885060,-1220509133,162800,-2000,-7,-3,-3,33900
104.85000000,104850,369885060,-1220509133,162800,-2000,-6,-2,-2,33900
104.97500000,104975,369885060,-1220509133,162800,-2000,-6,-2,-1,33900
105.10000000,105100,369885060,-1220509133,162800,-2000,-8,-6,1,33900
105.22500000,105225,369885060,-1220509133,162800,-2000,-8,-7,1,33600
105.35000000,105350,369885060,-1220509133,162800,-2000,-8,-8,-6,33600
105.47500000,105475,369885060,-1220509133,162800,-2000,-3,-5,-11,33500
105.60000000,105600,369885060,-1220509133,162800,-2000,6,-5,-30,33600
105.72500000,105725,369885060,-1220509133,162800,-2000,7,-7,-36,33700
105.85000000,105850,369885060,-1220509133,162800,-2000,3,-2,-34,33900
105.97500000,105975,369885060,-1220509133,162800,-2000,0,6,-26,33900
106.10000000,106100,369885060,-1220509133,162800,-2000,0,10,-24,34000
106.22500000,106225,369885060,-1220509133,162800,-2000,0,13,-21,34200
106.35000000,106350,369885060,-1220509133,162800,-2000,0,16,-15,34300
106.47500000,106475,369885060,-1220509133,162800,-2000,1,15,-6,34500
106.60000000,106600,369885060,-1220509133,162800,-2000,-1,11,0,34600
106.72500000,106725,369885060,-1220509133,162800,-2000,-2,12,9,34600
106.85000000,106850,369885060,-1220509133,162800,-2000,-2,16,19,34600
106.97500000,106975,369885060,-1220509133,162800,-2000,3,18,24,34700
107.10000000,107100,369885060,-1220509133,162800,-2000,4,19,22,34700
107.22500000,107225,369885060,-1220509133,162800,-2000,4,23,22,34900
107.35000000,107350,369885060,-1220509133,162800,-2000,4,26,22,34900
107.47500000,107475,369885060,-1220509133,162800,-2000,5,28,26,34700
107.60000000,107600,369885060,-1220509133,162800,-2000,9,35,30,34700
107.72500000,107725,369885060,-1220509133,162800,-2000,13,43,31,34600
107.85000000,107850,369885060,-1220509133,162800,-2000,13,45,35,34500
107.97500000,107975,369885060,-1220509133,161800,-3000,10,44,32,34500
108.10000000,108100,369885060,-1220509133,161800,-3000,7,43,26,34300
108.22500000,108225,369885060,-1220509133,161800,-3000,5,42,-17,34200
108.35000000,108350,369885060,-1220509133,161800,-3000,3,42,-17,34000
108.47500000,108475,369885060,-1220509133,162800,-2000,2,42,-17,33900
108.60000000,108600,369885060,-1220509133,161800,-3000,2,39,24,33700
108.72500000,108725,369885060,-1220509133,161800,-3000,3,34,23,33700
108.85000000,108850,369885060,-1220509133,161800,-3000,8,37,-18,33700
108.97500000,108975,369885060,-1220509133,161800,-3000,9,39,24,33900
109.10000000,109100,369885060,-1220509133,161800,-3000,8,39,29,34000
109.22500000,109225,369885060,-1220509133,162800,-2000,5,39,-87,34200
109.35000000,109350,369885060,-1220509043,162800,-2000,4,1,-1,34300
109.47500000,109475,369885060,-1220509043,162800,-2000,2,2,6,34500
109.60000000,109600,369885060,-1220509043,162800,-2000,0,2,10,34600
109.72500000,109725,369885060,-1220509043,162800,-2000,1,3,14,34600
109.85000000,109850,369885060,-1220509043,162800,-2000,5,10,15,34600
109.97500000,109975,369885060,-1220509043,162800,-2000,12,20,14,34600
110.10000000,110100,369885060,-1220509043,162800,-2000,14,28,7,34500
110.22500000,110225,369885060,-1220509043,162800,-2000,11,27,4,34500
110.35000000,110350,369885060,-1220509043,162800,-2000,7,25,9,34300
110.47500000,110475,369885060,-1220509043,162800,-2000,2,19,9,34200
110.60000000,110600,369885060,-1220509043,162800,-2000,-2,10,10,34200
110.72500000,110725,369885060,-1220509043,161800,-3000,-4,1,10,34200
110.85000000,110850,369885060,-1220509043,162800,-2000,-8,-12,-34,34300
110.97500000,110975,369885060,-1220509043,162800,-2000,-9,-31,-1,34200
111.10000000,111100,369885060,-1220509043,162800,-2000,-6,-40,-12,34200
111.22500000,111225,369885060,-1220509043,162800,-2000,-6,-34,-33,34300
111.35000000,111350,369885060,-1220509043,162800,-2000,-11,-29,-47,34500
111.47500000,111475,369885060,-1220509133,162800,-2000,-14,-28,-47,34600
111.60000000,111600,369885060,-1220509133,162800,-2000,-21,13,-49,34600
111.72500000,111725,369885060,-1220509043,162800,-2000,-33,16,-50,34600
111.85000000,111850,369885060,-1220509133,162800,-2000,-35,-20,-39,34700
111.97500000,111975,369885060,-1220509133,162800,-2000,-30,22,-21,34900
112.10000000,112100,369885060,-1220509043,162800,-2000,-21,23,-1,35000
112.22500000,112225,369885060,-1220509133,162800,-2000,-13,-18,16,34700
112.35000000,112350,369885060,-1220509133,162800,-2000,-2,21,34,34300
112.47500000,112475,369885060,-1220509043,162800,-2000,-6,24,47,34000
112.60000000,112600,369885060,-1220509043,162800,-2000,-20,-15,53,34000
112.72500000,112725,369885060,-1220509133,162800,-2000,-34,-15,53,34200
112.85000000,112850,369885060,-1220509043,162800,-2000,-45,21,53,34000
112.97500000,112975,369885060,-1220509043,162800,-2000,-57,-23,58,33900
113.10000000,113100,369885060,-1220509133,161800,-3000,-66,-25,52,33600
113.22500000,113225,369885060,-1220509043,161800,-3000,-67,8,-14,33600
113.35000000,113350,369884970,-1220509133,161800,-3000,-22,-39,10,33500
113.47500000,113475,369884970,-1220509133,161800,-3000,-15,-43,-3,33600
113.60000000,113600,369884970,-1220509133,162800,-2000,-14,-1,-49,33900
113.72500000,113725,369884970,-1220509133,162800,-2000,-20,-2,-44,34200
113.85000000,113850,369884970,-1220509133,162800,-2000,-25,-8,-5,34300
113.97500000,113975,369884970,-1220509133,162800,-2000,-25,-14,-12,34300
114.10000000,114100,369884970,-1220509133,162800,-2000,-24,-18,-16,34500
114.22500000,114225,369884970,-1220509133,162800,-2000,-24,-19,-21,34500
114.35000000,114350,369884970,-1220509133,162800,-2000,-22,-21,-29,34600
114.47500000,114475,369884970,-1220509133,162800,-2000,-15,-24,-41,34600
114.60000000,114600,369884970,-1220509133,162800,-2000,-5,-30,-60,34500
114.72500000,114725,369884970,-1220509133,162800,-2000,3,-36,-81,34500
114.85000000,114850,369884970,-1220509133,162800,-2000,1,-38,-92,34500
114.97500000,114975,369884970,-1220509133,162800,-2000,-7,-39,-99,34300
115.10000000,115100,369884970,-1220509133,162800,-2000,-16,-36,-97,34200
115.22500000,115225,369884970,-1220509133,162800,-2000,-21,-31,-81,34200
115.35000000,115350,369884970,-1220509133,162800,-2000,-24,-27,-59,34000
115.47500000,115475,369884970,-1220509133,162800,-2000,-24,-25,-42,34000
115.60000000,115600,369884970,-1220509133,162800,-2000,-21,-23,13,33900
115.72500000,115725,369884970,-1220509133,162800,-2000,-17,-21,-12,33900
115.85000000,115850,369884970,-1220509133,162800,-2000,-15,-18,4,34000
115.97500000,115975,369884970,-1220509133,162800,-2000,-13,-19,21,34200
116.10000000,116100,369884970,-1220509133,162800,-2000,-16,-20,35,34500
116.22500000,116225,369884970,-1220509133,162800,-2000,-25,-19,47,34500
116.35000000,116350,369884970,-1220509133,162800,-2000,-35,-16,59,34600
116.47500000,116475,369884970,-1220509133,162800,-2000,-49,-9,48,34900
116.60000000,116600,369884970,-1220509133,162800,-2000,-50,-4,24,35000
116.72500000,116725,369884970,-1220509133,162800,-2000,-48,-5,9,35200
116.85000000,116850,369884970,-1220509133,162800,-2000,-45,-13,-9,35200
116.97500000,116975,369884970,-1220509133,162800,-2000,-38,-17,-24,35200
117.10000000,117100,369884970,-1220509133,162800,-2000,-32,-18,-41,35000
117.22500000,117225,369884970,-1220509133,162800,-2000,-27,-17,-59,34900
117.35000000,117350,369884970,-1220509133,162800,-2000,-29,-17,-75,34700
117.47500000,117475,369884880,-1220509133,162800,-2000,-37,-17,-86,34600
117.60000000,117600,369884880,-1220509133,163800,-1000,-3,-15,-44,34300
117.72500000,117725,369884880,-1220509133,163800,-1000,-4,-11,-31,34000
117.85000000,117850,369884880,-1220509133,163800,-1000,-5,-9,-14,33900
117.97500000,117975,369884880,-1220509133,163800,-1000,-6,-11,1,33700
118.10000000,118100,369884880,-1220509133,163800,-1000,-8,-14,12,33600
118.22500000,118225,369884880,-1220509133,163800,-1000,-9,-17,19,33500
118.35000000,118350,369884880,-1220509133,163800,-1000,-6,-20,28,33300
118.47500000,118475,369884880,-1220509133,163800,-1000,4,-20,43,33300
118.60000000,118600,369884880,-1220509133,162800,-2000,15,19,68,33500
118.72500000,118725,369884880,-1220509133,162800,-2000,14,-22,57,33700
118.85000000,118850,369884880,-1220509133,162800,-2000,-8,-24,64,34000
118.97500000,118975,369884880,-1220509133,162800,-2000,-33,12,32,34200
119.10000000,119100,369884880,-1220509133,162800,-2000,-34,7,1,34200
119.22500000,119225,369884880,-1220509133,162800,-2000,-31,-35,-18,34300
119.35000000,119350,369884880,-1220509133,162800,-2000,-26,13,-32,34300
119.47500000,119475,369884880,-1220509133,162800,-2000,-24,29,-34,34700
119.60000000,119600,369884880,-1220509133,162800,-2000,-32,36,-29,35400
119.72500000,119725,369884880,-1220509133,162800,-2000,-39,-12,-22,100
119.85000000,119850,369884880,-1220509133,162800,-2000,-42,-21,-18,400
119.97500000,119975,369884880,-1220509133,162800,-2000,-43,-34,-19,600
120.10000000,120100,369884880,-1220509133,162800,-2000,-45,-53,-24,300
120.22500000,120225,369884880,-1220509133,162800,-2000,-50,-19,-23,35600
120.35000000,120350,369884880,-1220509133,162800,-2000,-51,-8,-17,35000
120.47500000,120475,369884880,-1220509133,163800,-1000,-49,6,-14,34700
120.60000000,120600,369884880,-1220509133,162800,-2000,-50,11,9,34600
120.72500000,120725,369884880,-1220509133,163800,-1000,-56,6,-58,34600
120.85000000,120850,369884880,-1220509133,163800,-1000,-61,2,-69,34300
120.97500000,120975,369884880,-1220509133,163800,-1000,-57,3,-22,34000
121.10000000,121100,369884790,-1220509133,163800,-1000,-52,7,-8,33600
121.22500000,121225,369884790,-1220509133,163800,-1000,-14,11,-1,33500
121.35000000,121350,369884790,-1220509133,163800,-1000,-11,14,9,33200
121.47500000,121475,369884790,-1220509133,163800,-1000,-1,14,28,33200
121.60000000,121600,369884790,-1220509133,163800,-1000,13,13,53,33200
121.72500000,121725,369884790,-1220509133,162800,-2000,21,13,78,33500
121.85000000,121850,369884790,-1220509133,162800,-2000,20,16,103,33700
121.97500000,121975,369884880,-1220509133,162800,-2000,1,-18,73,34000
122.10000000,122100,369884790,-1220509133,162800,-2000,-23,-18,57,34300
122.22500000,122225,369884790,-1220509133,162800,-2000,-33,16,33,34500
122.35000000,122350,369884790,-1220509133,162800,-2000,-32,-29,13,34600
122.47500000,122475,369884790,-1220509133,162800,-2000,-29,-32,-2,34600
122.60000000,122600,369884790,-1220509133,162800,-2000,-24,6,-19,34600
122.72500000,122725,369884790,-1220509133,162800,-2000,-16,4,-38,34700
122.85000000,122850,369884790,-1220509133,162800,-2000,-9,-1,-68,34700
122.97500000,122975,369884790,-1220509133,162800,-2000,-9,-5,-91,34600
123.10000000,123100,369884790,-1220509133,162800,-2000,-13,-5,-90,34500
123.22500000,123225,369884790,-1220509133,163800,-1000,-15,-4,-82,34300
123.35000000,123350,369884790,-1220509133,163800,-1000,-16,-1,-32,34200
123.47500000,123475,369884790,-1220509133,163800,-1000,-9,4,-8,34200
123.60000000,123600,369884790,-1220509133,163800,-1000,0,3,27,34200
123.72500000,123725,369884790,-1220509133,163800,-1000,0,0,57,34200
123.85000000,123850,369884790,-1220509133,162800,-2000,-2,-2,78,34200
123.97500000,123975,369884790,-1220509133,162800,-2000,-11,-3,49,34300
124.10000000,124100,369884790,-1220509133,162800,-2000,-20,-2,46,34600
124.22500000,124225,369884790,-1220509133,162800,-2000,-21,-3,34,34600
124.35000000,124350,369884790,-1220509133,162800,-2000,-19,0,16,34600
124.47500000,124475,369884790,-1220509133,162800,-2000,-14,4,-2,34600
124.60000000,124600,369884790,-1220509133,162800,-2000,-8,9,-6,34600
124.72500000,124725,369884790,-1220509133,162800,-2000,-2,10,-4,34700
124.85000000,124850,369884790,-1220509133,162800,-2000,0,12,-6,34900
124.97500000,124975,369884790,-1220509133,162800,-2000,1,14,-6,35000
125.10000000,125100,369884790,-1220509133,162800,-2000,5,14,-5,35200
125.22500000,125225,369884790,-1220509133,162800,-2000,9,-28,-7,35200
125.35000000,125350,369884790,-1220509133,162800,-2000,10,10,-8,35200
125.47500000,125475,369884790,-1220509133,162800,-2000,13,8,-6,35200
125.60000000,125600,369884790,-1220509133,162800,-2000,15,7,-4,35000
125.72500000,125725,369884790,-1220509133,162800,-2000,11,11,0,34900
125.85000000,125850,369884790,-1220509133,162800,-2000,1,14,2,34900
125.97500000,125975,369884790,-1220509133,162800,-2000,6,-21,0,34900
126.10000000,126100,369884790,-1220509133,162800,-2000,12,-25,-5,35000
126.22500000,126225,369884790,-1220509133,162800,-2000,16,14,-11,35000
126.35000000,126350,369884790,-1220509133,162800,-2000,18,16,-5,35200
126.47500000,126475,369884790,-1220509133,162800,-2000,16,14,-5,35300
126.60000000,126600,369884790,-1220509133,162800,-2000,19,-19,-8,35300
126.72500000,126725,369884790,-1220509133,162800,-2000,16,20,-3,35400
126.85000000,126850,369884790,-1220509133,162800,-2000,1,7,2,35400
126.97500000,126975,369884790,-1220509133,162800,-2000,-3,-39,6,35400
127.10000000,127100,369884790,-1220509133,162800,-2000,-2,-38,8,35200
127.22500000,127225,369884790,-1220509133,162800,-2000,1,7,9,35000
127.35000000,127350,369884790,-1220509133,162800,-2000,2,8,5,34900
127.47500000,127475,369884790,-1220509133,162800,-2000,9,13,-13,34900
127.60000000,127600,369884790,-1220509133,162800,-2000,7,15,3,34900
127.72500000,127725,369884790,-1220509133,162800,-2000,15,17,-7,34900
127.85000000,127850,369884790,-1220509133,162800,-2000,17,18,-8,34900
127.97500000,127975,369884790,-1220509133,162800,-2000,19,-21,-10,35000
128.10000000,128100,369884790,-1220509133,162800,-2000,19,-23,-9,35000
128.22500000,128225,369884790,-1220509133,162800,-2000,20,17,-10,34900
128.35000000,128350,369884790,-1220509133,162800,-2000,22,-22,-10,34900
128.47500000,128475,369884790,-1220509133,162800,-2000,23,-23,-10,34900
128.60000000,128600,369884790,-1220509133,162800,-2000,24,17,-10,34900
128.72500000,128725,369884790,-1220509133,162800,-2000,25,-22,-10,34900
128.85000000,128850,369884790,-1220509133,162800,-2000,26,-23,-10,35000
128.97500000,128975,369884880,-1220509133,162800,-2000,27,17,-11,35000
129.10000000,129100,369884880,-1220509133,162800,-2000,28,17,-11,35000
129.22500000,129225,369884880,-1220509133,162800,-2000,-12,16,-11,35000
129.35000000,129350,369884880,-1220509133,162800,-2000,-11,-24,-11,35000
129.47500000,129475,369884880,-1220509133,163800,-1000,-10,-24,-9,35200
129.60000000,129600,369884880,-1220509133,162800,-2000,30,15,31,35200
129.72500000,129725,369884880,-1220509133,162800,-2000,-9,-24,-8,35200
129.85000000,129850,369884880,-1220509133,162800,-2000,-9,-23,-7,35200
129.97500000,129975,369884880,-1220509133,162800,-2000,-8,17,-6,35200
130.10000000,130100,369884880,-1220509133,162800,-2000,-7,18,-6,35200
130.22500000,130225,369884880,-1220509133,162800,-2000,-7,19,-6,35200
130.35000000,130350,369884790,-1220509133,162800,-2000,-6,-20,-6,35200
130.47500000,130475,369884790,-1220509133,162800,-2000,-5,-19,-7,35000
130.60000000,130600,369884880,-1220509133,162800,-2000,35,21,33,35000
130.72500000,130725,369884880,-1220509133,162800,-2000,-4,-18,-7,35000
130.85000000,130850,369884880,-1220509133,162800,-2000,-3,-18,-8,35000
130.97500000,130975,369884880,-1220509133,162800,-2000,-2,22,-8,35200
131.10000000,131100,369884880,-1220509133,162800,-2000,-2,22,-8,35200
131.22500000,131225,369884880,-1220509133,162800,-2000,-1,-19,-7,35200
131.35000000,131350,369884880,-1220509133,162800,-2000,0,-19,-5,35200
131.47500000,131475,369884880,-1220509133,162800,-2000,3,-17,-5,35200
131.60000000,131600,369884880,-1220509133,162800,-2000,3,23,-5,35200
131.72500000,131725,369884880,-1220509133,162800,-2000,3,-17,-4,35300
131.85000000,131850,369884880,-1220509133,162800,-2000,4,-16,-5,35300
131.97500000,131975,369884880,-1220509133,162800,-2000,5,25,36,35300
132.10000000,132100,369884880,-1220509133,162800,-2000,5,24,37,35300
132.22500000,132225,369884880,-1220509133,162800,-2000,6,-15,-1,35300
132.35000000,132350,369884880,-1220509133,162800,-2000,7,25,-1,35300
132.47500000,132475,369884880,-1220509133,162800,-2000,7,26,-1,35300
132.60000000,132600,369884880,-1220509133,162800,-2000,8,-14,-2,35300
132.72500000,132725,369884880,-1220509133,162800,-2000,9,-13,-3,35300
132.85000000,132850,369884880,-1220509133,162800,-2000,9,-13,-2,35300
132.97500000,132975,369884880,-1220509133,162800,-2000,10,27,-2,35300
133.10000000,133100,369884880,-1220509133,162800,-2000,11,-13,-1,35300
133.22500000,133225,369884880,-1220509133,162800,-2000,12,-13,1,35300
133.35000000,133350,369884880,-1220509133,162800,-2000,12,-13,1,35300
133.47500000,133475,369884880,-1220509133,162800,-2000,13,-12,1,35200
133.60000000,133600,369884880,-1220509133,162800,-2000,14,28,1,35200
133.72500000,133725,369884880,-1220509133,162800,-2000,14,-12,1,35200
133.85000000,133850,369884880,-1220509133,162800,-2000,15,-12,1,35200
133.97500000,133975,369884880,-1220509133,162800,-2000,15,-12,2,35200
134.10000000,134100,369884880,-1220509133,162800,-2000,15,-12,2,35200
134.22500000,134225,369884880,-1220509133,162800,-2000,16,-11,2,35200
134.35000000,134350,369884880,-1220509133,162800,-2000,16,29,2,35200
134.47500000,134475,369884880,-1220509133,162800,-2000,17,30,1,35200
134.60000000,134600,369884880,-1220509133,162800,-2000,17,-10,2,35300
134.72500000,134725,369884880,-1220509133,162800,-2000,17,-10,3,35300
134.85000000,134850,369884880,-1220509133,162800,-2000,18,-10,3,35300
134.97500000,134975,369884880,-1220509133,162800,-2000,18,30,2,35300
135.10000000,135100,369884880,-1220509133,162800,-2000,19,-10,2,35300
135.22500000,135225,369884880,-1220509133,162800,-2000,19,-10,2,35300
135.35000000,135350,369884880,-1220509133,162800,-2000,19,-9,3,35300
135.47500000,135475,369884880,-1220509133,162800,-2000,20,-9,3,35300
135.60000000,135600,369884880,-1220509133,162800,-2000,20,-9,4,35300
135.72500000,135725,369884880,-1220509133,162800,-2000,21,-9,4,35300
135.85000000,135850,369884880,-1220509133,162800,-2000,21,-9,3,35300
135.97500000,135975,369884880,-1220509133,162800,-2000,22,31,3,35300
136.10000000,136100,369884880,-1220509133,162800,-2000,22,-8,4,35300
136.22500000,136225,369884880,-1220509133,162800,-2000,22,-8,4,35300
136.35000000,136350,369884880,-1220509133,162800,-2000,23,-8,4,35300
