timestamp,GPS_RAW_INT.time_usec,GPS_RAW_INT.fix_type,GPS_RAW_INT.lat,GPS_RAW_INT.lon,GPS_RAW_INT.alt,GPS_RAW_INT.eph,GPS_RAW_INT.epv,GPS_RAW_INT.vel,GPS_RAW_INT.cog,GPS_RAW_INT.satellites_visible
0.12500000,150000,0,0,0,0,0,65535,0,0,0
0.37500000,400000,0,0,0,0,0,65535,0,0,0
0.62500000,650000,0,0,0,0,0,65535,0,0,0
0.87500000,900000,0,0,0,0,0,65535,0,0,0
1.12500000,1150000,0,0,0,0,0,65535,0,0,0
1.37500000,1400000,0,0,0,0,0,65535,0,0,0
1.62500000,1650000,0,0,0,0,0,65535,0,0,0
1.87500000,1900000,0,0,0,0,0,65535,0,0,0
2.12500000,2150000,0,0,0,0,0,65535,0,0,0
2.37500000,2400000,0,0,0,0,0,65535,0,0,0
2.62500000,2650000,0,0,0,0,0,65535,0,0,0
2.87500000,2900000,0,0,0,0,0,65535,0,0,0
3.12500000,3150000,0,0,0,0,0,65535,0,0,0
3.37500000,3400000,0,0,0,0,0,65535,0,0,0
3.62500000,3650000,0,0,0,0,0,65535,0,0,0
3.87500000,3900000,0,0,0,0,0,65535,0,0,0
4.12500000,4150000,0,0,0,0,0,65535,0,0,0
4.37500000,4400000,0,0,0,0,0,65535,0,0,0
4.62500000,4650000,0,0,0,0,0,65535,0,0,0
4.87500000,4900000,0,0,0,0,0,65535,0,0,0
5.12500000,5150000,0,0,0,0,0,65535,0,0,0
5.37500000,5400000,0,0,0,0,0,65535,0,0,0
5.62500000,5650000,0,0,0,0,0,65535,0,0,0
5.87500000,5900000,0,0,0,0,0,65535,0,0,0
6.12500000,6150000,0,0,0,0,0,65535,0,0,0
6.37500000,6400000,0,0,0,0,0,65535,0,0,0
6.62500000,6650000,0,0,0,0,0,65535,0,0,0
6.87500000,6900000,0,0,0,0,0,65535,0,0,0
7.12500000,7150000,0,0,0,0,0,65535,0,0,0
7.37500000,7400000,0,0,0,0,0,65535,0,0,0
7.62500000,7650000,0,0,0,0,0,65535,0,0,0
7.87500000,7900000,0,0,0,0,0,65535,0,0,0
8.12500000,8150000,0,0,0,0,0,65535,0,0,0
8.37500000,8400000,0,0,0,0,0,65535,0,0,0
8.62500000,8650000,0,0,0,0,0,65535,0,0,0
8.87500000,8900000,0,0,0,0,0,65535,0,0,0
9.12500000,9150000,0,0,0,0,0,65535,0,0,0
9.37500000,9400000,0,0,0,0,0,65535,0,0,0
9.62500000,9650000,0,0,0,0,0,65535,0,0,0
9.87500000,9900000,0,0,0,0,0,65535,0,0,0
10.12500000,10150000,0,0,0,0,0,65535,0,0,0
10.37500000,10400000,0,0,0,0,0,65535,0,0,0
10.62500000,10650000,0,0,0,0,0,65535,0,0,0
10.87500000,10900000,0,0,0,0,0,65535,0,0,0
11.12500000,11150000,0,0,0,0,0,65535,0,0,0
11.37500000,11400000,0,0,0,0,0,65535,0,0,0
11.62500000,11650000,0,0,0,0,0,65535,0,0,0
11.87500000,11900000,0,0,0,0,0,65535,0,0,0
12.12500000,12150000,0,0,0,0,0,65535,0,0,0
12.37500000,12400000,0,0,0,0,0,65535,0,0,0
12.62500000,12650000,0,0,0,0,0,65535,0,0,0
12.87500000,12900000,0,0,0,0,0,65535,0,0,0
13.12500000,13150000,0,0,0,0,0,65535,0,0,0
13.37500000,13400000,0,0,0,0,0,65535,0,0,0
13.62500000,13650000,3,369885183,-1220509000,16590,38,65535,2,1880,11
13.87500000,13900000,3,369885200,-1220509000,16590,38,65535,1,1880,11
14.12500000,14150000,3,369885183,-1220509000,16600,38,65535,2,1880,11
14.37500000,14400000,3,369885183,-1220509000,16600,38,65535,3,1880,11
14.62500000,14650000,3,369885183,-1220509000,16610,38,65535,13,1880,11
14.87500000,14900000,3,369885183,-1220509000,16610,38,65535,15,1880,11
15.12500000,15150000,3,369885183,-1220509016,16610,38,65535,9,1880,11
15.37500000,15400000,3,369885200,-1220509016,16610,38,65535,4,1880,11
15.62500000,15650000,3,369885200,-1220509016,16610,38,65535,2,1880,11
15.87500000,15900000,3,369885200,-1220509016,16610,38,65535,3,1880,11
16.12500000,16150000,3,369885200,-1220509016,16610,38,65535,2,1880,11
16.37500000,16400000,3,369885200,-1220509016,16610,38,65535,1,1880,11
16.62500000,16650000,3,369885200,-1220509033,16610,38,65535,2,1880,11
16.87500000,16900000,3,369885200,-1220509033,16610,38,65535,3,1880,11
17.12500000,17150000,3,369885200,-1220509033,16610,38,65535,2,1880,11
17.37500000,17400000,3,369885200,-1220509033,16600,38,65535,2,1880,11
17.62500000,17650000,3,369885216,-1220509033,16600,38,65535,1,1880,11
17.87500000,17900000,3,369885216,-1220509033,16600,38,65535,2,1880,11
18.12500000,18150000,3,369885216,-1220509033,16600,38,65535,1,1880,11
18.37500000,18400000,3,369885216,-1220509033,16600,38,65535,2,1880,11
18.62500000,18650000,3,369885200,-1220509050,16600,38,65535,1,1880,11
18.87500000,18900000,3,369885200,-1220509050,16600,38,65535,2,1880,11
19.12500000,19150000,3,369885200,-1220509050,16590,39,65535,1,1880,11
19.37500000,19400000,3,369885200,-1220509050,16590,38,65535,0,1880,11
19.62500000,19650000,3,369885183,-1220509050,16590,38,65535,1,1880,11
19.87500000,19900000,3,369885183,-1220509050,16580,38,65535,2,1880,11
20.12500000,20150000,3,369885183,-1220509066,16580,38,65535,1,1880,11
20.37500000,20400000,3,369885166,-1220509066,16590,38,65535,3,1880,11
20.62500000,20650000,3,369885166,-1220509050,16590,38,65535,2,1880,11
20.87500000,20900000,3,369885150,-1220509050,16580,38,65535,3,1880,11
21.12500000,21150000,3,369885150,-1220509066,16580,38,65535,1,1880,11
21.37500000,21400000,3,369885133,-1220509083,16570,44,65535,1,1880,10
21.62500000,21650000,3,369885133,-1220509083,16570,43,65535,0,1880,10
21.87500000,21900000,3,369885116,-1220509083,16570,43,65535,0,1880,10
22.12500000,22150000,3,369885116,-1220509100,16570,43,65535,1,1880,10
22.37500000,22400000,3,369885116,-1220509100,16560,43,65535,1,1880,10
22.62500000,22650000,3,369885100,-1220509116,16560,38,65535,1,1880,11
22.87500000,22900000,3,369885083,-1220509116,16560,38,65535,1,1880,11
23.12500000,23150000,3,369885083,-1220509116,16560,39,65535,1,1880,11
23.37500000,23400000,3,369885083,-1220509133,16560,38,65535,1,1880,11
23.62500000,23650000,3,369885066,-1220509133,16550,38,65535,2,1880,11
23.87500000,23900000,3,369885066,-1220509133,16550,38,65535,1,1880,11
24.12500000,24150000,3,369885066,-1220509133,16540,38,65535,1,1880,11
24.37500000,24400000,3,369885083,-1220509133,16540,38,65535,1,1880,11
24.62500000,24650000,3,369885083,-1220509116,16540,38,65535,1,1880,11
24.87500000,24900000,3,369885083,-1220509116,16530,38,65535,1,1880,11
25.12500000,25150000,3,369885083,-1220509116,16530,38,65535,4,1880,11
25.37500000,25400000,3,369885083,-1220509116,16530,38,65535,1,1880,11
25.62500000,25650000,3,369885083,-1220509116,16530,39,65535,2,1880,11
25.87500000,25900000,3,369885083,-1220509116,16530,38,65535,1,1880,11
26.12500000,26150000,3,369885083,-1220509116,16530,38,65535,1,1880,11
26.37500000,26400000,3,369885083,-1220509116,16530,39,65535,1,1880,11
26.62500000,26650000,3,369885083,-1220509116,16530,38,65535,2,1880,11
26.87500000,26900000,3,369885083,-1220509116,16530,38,65535,1,1880,11
27.12500000,27150000,3,369885083,-1220509116,16530,38,65535,1,1880,11
27.37500000,27400000,3,369885083,-1220509116,16530,38,65535,1,1880,11
27.62500000,27650000,3,369885083,-1220509116,16530,38,65535,0,1880,11
27.87500000,27900000,3,369885083,-1220509116,16530,38,65535,1,1880,11
28.12500000,28150000,3,369885083,-1220509116,16530,39,65535,4,1880,11
28.37500000,28400000,3,369885083,-1220509133,16530,38,65535,3,1880,11
28.62500000,28650000,3,369885083,-1220509133,16530,39,65535,4,1880,11
28.87500000,28900000,3,369885083,-1220509133,16530,38,65535,3,1880,11
29.12500000,29150000,3,369885066,-1220509133,16530,38,65535,2,1880,11
29.37500000,29400000,3,369885083,-1220509150,16530,38,65535,1,1880,11
29.62500000,29650000,3,369885066,-1220509150,16520,38,65535,0,1880,11
29.87500000,29900000,3,369885066,-1220509150,16520,38,65535,0,1880,11
30.12500000,30150000,3,369885066,-1220509150,16520,39,65535,1,1880,11
30.37500000,30400000,3,369885066,-1220509150,16520,38,65535,1,1880,11
30.62500000,30650000,3,369885066,-1220509150,16520,38,65535,1,1880,11
30.87500000,30900000,3,369885066,-1220509150,16510,38,65535,1,1880,11
31.12500000,31150000,3,369885066,-1220509150,16510,38,65535,1,1880,11
31.37500000,31400000,3,369885050,-1220509150,16500,38,65535,1,1880,11
31.62500000,31650000,3,369885050,-1220509150,16500,38,65535,1,1880,11
31.87500000,31900000,3,369885050,-1220509150,16490,39,65535,1,1880,11
32.12500000,32150000,3,369885050,-1220509133,16490,38,65535,1,1880,11
32.37500000,32400000,3,369885050,-1220509133,16490,38,65535,1,1880,11
32.62500000,32650000,3,369885050,-1220509133,16490,38,65535,0,1880,11
32.87500000,32900000,3,369885050,-1220509133,16490,39,65535,1,1880,11
33.12500000,33150000,3,369885050,-1220509133,16490,38,65535,1,1880,11
33.37500000,33400000,3,369885050,-1220509133,16490,38,65535,0,1880,11
33.62500000,33650000,3,369885050,-1220509133,16490,38,65535,1,1880,11
33.87500000,33900000,3,369885050,-1220509133,16490,39,65535,0,1880,11
34.12500000,34150000,3,369885050,-1220509133,16490,39,65535,0,1880,11
34.37500000,34400000,3,369885050,-1220509133,16490,39,65535,0,1880,11
34.62500000,34650000,3,369885050,-1220509133,16490,39,65535,0,1880,11
34.87500000,34900000,3,369885050,-1220509133,16490,39,65535,0,1880,11
35.12500000,35150000,3,369885050,-1220509133,16490,39,65535,0,1880,11
35.37500000,35400000,3,369885050,-1220509133,16490,39,65535,0,1880,11
35.62500000,35650000,3,369885050,-1220509133,16490,39,65535,0,1880,11
35.87500000,35900000,3,369885050,-1220509133,16490,39,65535,0,1880,11
36.12500000,36150000,3,369885050,-1220509133,16490,39,65535,0,1880,11
36.37500000,36400000,3,369885050,-1220509133,16490,39,65535,0,1880,11
36.62500000,36650000,3,369885050,-1220509133,16490,39,65535,0,1880,11
36.87500000,36900000,3,369885050,-1220509133,16490,39,65535,0,1880,11
37.12500000,37150000,3,369885050,-1220509133,16490,39,65535,0,1880,11
37.37500000,37400000,3,369885050,-1220509133,16490,39,65535,0,1880,11
37.62500000,37650000,3,369885050,-1220509133,16490,39,65535,0,1880,11
37.87500000,37900000,3,369885050,-1220509133,16490,39,65535,0,1880,11
38.12500000,38150000,3,369885050,-1220509133,16490,39,65535,0,1880,11
38.37500000,38400000,3,369885050,-1220509133,16490,39,65535,0,1880,11
38.62500000,38650000,3,369885050,-1220509133,16490,39,65535,0,1880,11
38.87500000,38900000,3,369885050,-1220509133,16490,39,65535,0,1880,11
39.12500000,39150000,3,369885050,-1220509133,16490,39,65535,0,1880,11
39.37500000,39400000,3,369885050,-1220509133,16490,39,65535,0,1880,11
39.62500000,39650000,3,369885050,-1220509133,16490,39,65535,0,1880,11
39.87500000,39900000,3,369885050,-1220509133,16490,39,65535,0,1880,11
40.12500000,40150000,3,369885050,-1220509133,16490,39,65535,0,1880,11
40.37500000,40400000,3,369885050,-1220509133,16490,39,65535,0,1880,11
40.62500000,40650000,3,369885050,-1220509133,16490,39,65535,0,1880,11
40.87500000,40900000,3,369885050,-1220509133,16490,39,65535,0,1880,11
41.12500000,41150000,3,369885050,-1220509133,16490,39,65535,0,1880,11
41.37500000,41400000,3,369885050,-1220509133,16490,39,65535,0,1880,11
41.62500000,41650000,3,369885050,-1220509133,16490,39,65535,0,1880,11
41.87500000,41900000,3,369885050,-1220509133,16490,39,65535,0,1880,11
42.12500000,42150000,3,369885050,-1220509133,16490,39,65535,0,1880,11
42.37500000,42400000,3,369885050,-1220509133,16490,39,65535,0,1880,11
42.62500000,42650000,3,369885050,-1220509133,16490,39,65535,0,1880,11
42.87500000,42900000,3,369885050,-1220509133,16490,39,65535,0,1880,11
43.12500000,43150000,3,369885050,-1220509133,16490,39,65535,0,1880,11
43.37500000,43400000,3,369885050,-1220509133,16490,39,65535,0,1880,11
43.62500000,43650000,3,369885050,-1220509133,16490,39,65535,0,1880,11
43.87500000,43900000,3,369885050,-1220509133,16490,39,65535,0,1880,11
44.12500000,44150000,3,369885050,-1220509133,16490,39,65535,0,1880,11
44.37500000,44400000,3,369885050,-1220509133,16480,39,65535,0,1880,11
44.62500000,44650000,3,369885050,-1220509133,16480,39,65535,0,1880,11
44.87500000,44900000,3,369885050,-1220509133,16480,39,65535,0,1880,11
45.12500000,45150000,3,369885050,-1220509133,16480,39,65535,0,1880,11
45.37500000,45400000,3,369885050,-1220509133,16480,39,65535,0,1880,11
45.62500000,45650000,3,369885050,-1220509133,16480,39,65535,0,1880,11
45.87500000,45900000,3,369885050,-1220509133,16480,39,65535,0,1880,11
46.12500000,46150000,3,369885050,-1220509133,16480,39,65535,0,1880,11
46.37500000,46400000,3,369885050,-1220509133,16480,39,65535,0,1880,11
46.62500000,46650000,3,369885050,-1220509133,16480,39,65535,0,1880,11
46.87500000,46900000,3,369885050,-1220509133,16480,39,65535,0,1880,11
47.12500000,47150000,3,369885050,-1220509133,16480,39,65535,0,1880,11
47.37500000,47400000,3,369885050,-1220509133,16480,39,65535,1,1880,11
47.62500000,47650000,3,369885050,-1220509133,16480,39,65535,0,1880,11
47.87500000,47900000,3,369885050,-1220509133,16480,39,65535,0,1880,11
48.12500000,48150000,3,369885050,-1220509133,16480,39,65535,0,1880,11
48.37500000,48400000,3,369885050,-1220509133,16480,39,65535,0,1880,11
48.62500000,48650000,3,369885050,-1220509133,16480,39,65535,0,1880,11
48.87500000,48900000,3,369885050,-1220509133,16480,39,65535,0,1880,11
49.12500000,49150000,3,369885050,-1220509133,16480,39,65535,0,1880,11
49.37500000,49400000,3,369885050,-1220509133,16480,39,65535,0,1880,11
49.62500000,49650000,3,369885050,-1220509133,16480,39,65535,0,1880,11
49.87500000,49900000,3,369885050,-1220509133,16480,39,65535,0,1880,11
50.12500000,50150000,3,369885050,-1220509133,16480,39,65535,0,1880,11
50.37500000,50400000,3,369885050,-1220509133,16480,39,65535,0,1880,11
50.62500000,50650000,3,369885050,-1220509133,16480,39,65535,0,1880,11
50.87500000,50900000,3,369885050,-1220509133,16480,39,65535,0,1880,11
51.12500000,51150000,3,369885050,-1220509133,16480,39,65535,0,1880,11
51.37500000,51400000,3,369885050,-1220509133,16480,39,65535,0,1880,11
51.62500000,51650000,3,369885050,-1220509133,16480,39,65535,0,1880,11
51.87500000,51900000,3,369885050,-1220509133,16480,39,65535,0,1880,11
52.12500000,52150000,3,369885050,-1220509133,16480,39,65535,0,1880,11
52.37500000,52400000,3,369885050,-1220509133,16480,39,65535,0,1880,11
52.62500000,52650000,3,369885050,-1220509133,16480,39,65535,0,1880,11
52.87500000,52900000,3,369885050,-1220509133,16480,39,65535,0,1880,11
53.12500000,53150000,3,369885050,-1220509133,16480,39,65535,0,1880,11
53.37500000,53400000,3,369885050,-1220509133,16480,39,65535,0,1880,11
53.62500000,53650000,3,369885050,-1220509133,16480,39,65535,0,1880,11
53.87500000,53900000,3,369885050,-1220509133,16480,39,65535,0,1880,11
54.12500000,54150000,3,369885050,-1220509133,16480,39,65535,0,1880,11
54.37500000,54400000,3,369885050,-1220509133,16480,39,65535,0,1880,11
54.62500000,54650000,3,369885050,-1220509133,16480,39,65535,0,1880,11
54.87500000,54900000,3,369885050,-1220509133,16480,39,65535,0,1880,11
55.12500000,55150000,3,369885050,-1220509133,16480,39,65535,0,1880,11
55.37500000,55400000,3,369885050,-1220509133,16480,39,65535,0,1880,11
55.62500000,55650000,3,369885050,-1220509133,16480,39,65535,0,1880,11
55.87500000,55900000,3,369885050,-1220509133,16480,39,65535,0,1880,11
56.12500000,56150000,3,369885050,-1220509133,16480,39,65535,0,1880,11
56.37500000,56400000,3,369885050,-1220509133,16480,39,65535,0,1880,11
56.62500000,56650000,3,369885050,-1220509133,16480,39,65535,0,1880,11
56.87500000,56900000,3,369885050,-1220509133,16480,39,65535,0,1880,11
57.12500000,57150000,3,369885050,-1220509133,16480,39,65535,0,1880,11
57.37500000,57400000,3,369885050,-1220509133,16480,39,65535,0,1880,11
57.62500000,57650000,3,369885050,-1220509133,16480,39,65535,0,1880,11
57.87500000,57900000,3,369885050,-1220509133,16480,39,65535,0,1880,11
58.12500000,58150000,3,369885050,-1220509133,16480,39,65535,0,1880,11
58.37500000,58400000,3,369885050,-1220509133,16480,39,65535,1,1880,11
58.62500000,58650000,3,369885050,-1220509133,16480,39,65535,0,1880,11
58.87500000,58900000,3,369885050,-1220509133,16480,39,65535,0,1880,11
59.12500000,59150000,3,369885050,-1220509133,16480,39,65535,0,1880,11
59.37500000,59400000,3,369885050,-1220509133,16480,39,65535,0,1880,11
59.62500000,59650000,3,369885050,-1220509133,16480,39,65535,0,1880,11
59.87500000,59900000,3,369885050,-1220509133,16480,39,65535,1,1880,11
60.12500000,60150000,3,369885050,-1220509133,16480,39,65535,0,1880,11
60.37500000,60400000,3,369885050,-1220509133,16480,39,65535,0,1880,11
60.62500000,60650000,3,369885050,-1220509133,16480,39,65535,0,1880,11
60.87500000,60900000,3,369885050,-1220509133,16480,39,65535,0,1880,11
61.12500000,61150000,3,369885050,-1220509133,16480,39,65535,0,1880,11
61.37500000,61400000,3,369885050,-1220509133,16480,39,65535,0,1880,11
61.62500000,61650000,3,369885050,-1220509133,16480,39,65535,0,1880,11
61.87500000,61900000,3,369885050,-1220509133,16480,39,65535,0,1880,11
62.12500000,62150000,3,369885050,-1220509133,16480,39,65535,0,1880,11
62.37500000,62400000,3,369885050,-1220509133,16480,39,65535,0,1880,11
62.62500000,62650000,3,369885050,-1220509133,16480,39,65535,0,1880,11
62.87500000,62900000,3,369885050,-1220509133,16480,39,65535,0,1880,11
63.12500000,63150000,3,369885050,-1220509133,16480,39,65535,0,1880,11
63.37500000,63400000,3,369885050,-1220509133,16480,39,65535,0,1880,11
63.62500000,63650000,3,369885050,-1220509133,16480,39,65535,0,1880,11
63.87500000,63900000,3,369885050,-1220509133,16480,39,65535,0,1880,11
64.12500000,64150000,3,369885050,-1220509133,16480,39,65535,0,1880,11
64.37500000,64400000,3,369885050,-1220509150,16480,39,65535,0,1880,11
64.62500000,64650000,3,369885033,-1220509150,16480,39,65535,0,1880,11
64.87500000,64900000,3,369885033,-1220509150,16480,39,65535,0,1880,11
65.12500000,65150000,3,369885033,-1220509150,16480,39,65535,0,1880,11
65.37500000,65400000,3,369885033,-1220509150,16480,39,65535,0,1880,11
65.62500000,65650000,3,369885033,-1220509133,16480,39,65535,0,1880,11
65.87500000,65900000,3,369885033,-1220509133,16480,39,65535,0,1880,11
66.12500000,66150000,3,369885033,-1220509150,16480,39,65535,0,1880,11
66.37500000,66400000,3,369885050,-1220509150,16470,39,65535,0,1880,11
66.62500000,66650000,3,369885050,-1220509150,16470,39,65535,0,1880,11
66.87500000,66900000,3,369885050,-1220509150,16460,39,65535,0,1880,11
67.12500000,67150000,3,369885050,-1220509166,16460,39,65535,0,1880,11
67.37500000,67400000,3,369885050,-1220509166,16460,39,65535,0,1880,11
67.62500000,67650000,3,369885050,-1220509166,16450,39,65535,0,1880,11
67.87500000,67900000,3,369885033,-1220509166,16450,39,65535,0,1880,11
68.12500000,68150000,3,369885050,-1220509183,16450,39,65535,0,1880,11
68.37500000,68400000,3,369885050,-1220509183,16440,39,65535,0,1880,11
68.62500000,68650000,3,369885050,-1220509200,16440,39,65535,0,1880,11
68.87500000,68900000,3,369885050,-1220509200,16440,39,65535,0,1880,11
69.12500000,69150000,3,369885050,-1220509200,16430,39,65535,1,1880,11
69.37500000,69400000,3,369885066,-1220509200,16430,39,65535,1,1880,11
69.62500000,69650000,3,369885066,-1220509200,16420,39,65535,1,1880,11
69.87500000,69900000,3,369885066,-1220509200,16420,39,65535,1,1880,11
70.12500000,70150000,3,369885066,-1220509200,16420,39,65535,1,1880,11
70.37500000,70400000,3,369885066,-1220509200,16410,39,65535,1,1880,11
70.62500000,70650000,3,369885066,-1220509200,16410,39,65535,1,1880,11
70.87500000,70900000,3,369885066,-1220509216,16410,39,65535,1,1880,11
71.12500000,71150000,3,369885066,-1220509216,16400,39,65535,1,1880,11
71.37500000,71400000,3,369885083,-1220509216,16400,39,65535,1,1880,11
71.62500000,71650000,3,369885083,-1220509216,16390,39,65535,1,1880,11
71.87500000,71900000,3,369885083,-1220509216,16390,39,65535,1,1880,11
72.12500000,72150000,3,369885083,-1220509233,16390,39,65535,1,1880,11
72.37500000,72400000,3,369885083,-1220509216,16390,38,65535,9,1880,11
72.62500000,72650000,3,369885083,-1220509233,16390,38,65535,5,1880,11
72.87500000,72900000,3,369885083,-1220509233,16390,38,65535,4,1880,11
73.12500000,73150000,3,369885066,-1220509233,16390,39,65535,1,1880,11
73.37500000,73400000,3,369885066,-1220509233,16390,38,65535,1,1880,11
73.62500000,73650000,3,369885066,-1220509233,16390,38,65535,0,1880,11
73.87500000,73900000,3,369885066,-1220509233,16390,38,65535,0,1880,11
74.12500000,74150000,3,369885066,-1220509233,16390,38,65535,0,1880,11
74.37500000,74400000,3,369885066,-1220509233,16380,39,65535,0,1880,11
74.62500000,74650000,3,369885066,-1220509233,16380,39,65535,0,1880,11
74.87500000,74900000,3,369885066,-1220509233,16380,39,65535,0,1880,11
75.12500000,75150000,3,369885066,-1220509233,16370,39,65535,0,1880,11
75.37500000,75400000,3,369885066,-1220509233,16360,39,65535,0,1880,11
75.62500000,75650000,3,369885083,-1220509250,16360,39,65535,0,1880,11
75.87500000,75900000,3,369885083,-1220509250,16360,38,65535,1,1880,11
76.12500000,76150000,3,369885083,-1220509250,16350,39,65535,1,1880,11
76.37500000,76400000,3,369885083,-1220509250,16350,39,65535,1,1880,11
76.62500000,76650000,3,369885083,-1220509250,16340,39,65535,0,1880,11
76.87500000,76900000,3,369885083,-1220509250,16340,39,65535,0,1880,11
77.12500000,77150000,3,369885100,-1220509250,16340,39,65535,0,1880,11
77.37500000,77400000,3,369885100,-1220509250,16340,39,65535,0,1880,11
77.62500000,77650000,3,369885100,-1220509250,16340,39,65535,0,1880,11
77.87500000,77900000,3,369885100,-1220509250,16340,39,65535,0,1880,11
78.12500000,78150000,3,369885100,-1220509250,16340,39,65535,0,1880,11
78.37500000,78400000,3,369885100,-1220509250,16330,39,65535,0,1880,11
78.62500000,78650000,3,369885116,-1220509250,16330,39,65535,0,1880,11
78.87500000,78900000,3,369885116,-1220509250,16330,39,65535,0,1880,11
79.12500000,79150000,3,369885116,-1220509250,16330,39,65535,0,1880,11
79.37500000,79400000,3,369885116,-1220509250,16320,39,65535,0,1880,11
79.62500000,79650000,3,369885116,-1220509250,16320,39,65535,0,1880,11
79.87500000,79900000,3,369885116,-1220509250,16320,39,65535,0,1880,11
80.12500000,80150000,3,369885100,-1220509250,16320,39,65535,0,1880,11
80.37500000,80400000,3,369885116,-1220509250,16320,39,65535,0,1880,11
80.62500000,80650000,3,369885116,-1220509250,16320,39,65535,0,1880,11
80.87500000,80900000,3,369885100,-1220509250,16320,39,65535,0,1880,11
81.12500000,81150000,3,369885100,-1220509250,16310,39,65535,0,1880,11
81.37500000,81400000,3,369885100,-1220509250,16310,39,65535,0,1880,11
81.62500000,81650000,3,369885116,-1220509250,16310,39,65535,0,1880,11
81.87500000,81900000,3,369885116,-1220509266,16310,39,65535,0,1880,11
82.12500000,82150000,3,369885116,-1220509266,16300,39,65535,0,1880,11
82.37500000,82400000,3,369885116,-1220509266,16300,39,65535,0,1880,11
82.62500000,82650000,3,369885116,-1220509266,16300,39,65535,0,1880,11
82.87500000,82900000,3,369885116,-1220509266,16290,39,65535,0,1880,11
83.12500000,83150000,3,369885133,-1220509266,16290,39,65535,0,1880,11
83.37500000,83400000,3,369885133,-1220509266,16280,39,65535,0,1880,11
83.62500000,83650000,3,369885150,-1220509266,16280,39,65535,0,1880,11
83.87500000,83900000,3,369885150,-1220509283,16280,39,65535,0,1880,11
84.12500000,84150000,3,369885150,-1220509283,16270,39,65535,0,1880,11
84.37500000,84400000,3,369885166,-1220509283,16270,39,65535,0,1880,11
84.62500000,84650000,3,369885166,-1220509283,16270,39,65535,0,1880,11
84.87500000,84900000,3,369885166,-1220509283,16270,39,65535,0,1880,11
85.12500000,85150000,3,369885183,-1220509283,16270,39,65535,0,1880,11
85.37500000,85400000,3,369885183,-1220509283,16260,39,65535,0,1880,11
85.62500000,85650000,3,369885183,-1220509266,16260,39,65535,0,1880,11
85.87500000,85900000,3,369885200,-1220509266,16260,39,65535,0,1880,11
86.12500000,86150000,3,369885200,-1220509266,16250,39,65535,0,1880,11
86.37500000,86400000,3,369885200,-1220509266,16260,39,65535,0,1880,11
86.62500000,86650000,3,369885200,-1220509266,16260,39,65535,0,1880,11
86.87500000,86900000,3,369885216,-1220509266,16260,39,65535,0,1880,11
87.12500000,87150000,3,369885216,-1220509266,16260,39,65535,0,1880,11
87.37500000,87400000,3,369885200,-1220509266,16260,39,65535,0,1880,11
87.62500000,87650000,3,369885200,-1220509266,16260,39,65535,0,1880,11
87.87500000,87900000,3,369885200,-1220509266,16260,39,65535,0,1880,11
88.12500000,88150000,3,369885200,-1220509266,16260,39,65535,0,1880,11
88.37500000,88400000,3,369885200,-1220509250,16250,39,65535,0,1880,11
88.62500000,88650000,3,369885200,-1220509250,16250,39,65535,0,1880,11
88.87500000,88900000,3,369885200,-1220509266,16250,39,65535,0,1880,11
89.12500000,89150000,3,369885200,-1220509266,16250,39,65535,1,1880,11
89.37500000,89400000,3,369885200,-1220509266,16240,39,65535,1,1880,11
89.62500000,89650000,3,369885200,-1220509266,16240,39,65535,0,1880,11
89.87500000,89900000,3,369885200,-1220509266,16240,39,65535,0,1880,11
90.12500000,90150000,3,369885183,-1220509266,16240,39,65535,0,1880,11
90.37500000,90400000,3,369885183,-1220509266,16230,39,65535,0,1880,11
90.62500000,90650000,3,369885183,-1220509266,16230,39,65535,0,1880,11
90.87500000,90900000,3,369885183,-1220509266,16230,39,65535,0,1880,11
91.12500000,91150000,3,369885183,-1220509266,16220,39,65535,0,1880,11
91.37500000,91400000,3,369885183,-1220509266,16220,39,65535,0,1880,11
91.62500000,91650000,3,369885166,-1220509283,16220,39,65535,0,1880,11
91.87500000,91900000,3,369885166,-1220509283,16210,39,65535,0,1880,11
92.12500000,92150000,3,369885166,-1220509283,16210,39,65535,0,1880,11
92.37500000,92400000,3,369885166,-1220509283,16210,39,65535,0,1880,11
92.62500000,92650000,3,369885166,-1220509283,16210,39,65535,0,1880,11
92.87500000,92900000,3,369885150,-1220509300,16210,39,65535,0,1880,11
93.12500000,93150000,3,369885150,-1220509300,16200,39,65535,0,1880,11
93.37500000,93400000,3,369885150,-1220509300,16200,39,65535,0,1880,11
93.62500000,93650000,3,369885150,-1220509300,16190,39,65535,0,1880,11
93.87500000,93900000,3,369885166,-1220509300,16190,39,65535,0,1880,11
94.12500000,94150000,3,369885166,-1220509300,16190,39,65535,0,1880,11
94.37500000,94400000,3,369885166,-1220509300,16190,39,65535,0,1880,11
94.62500000,94650000,3,369885166,-1220509300,16190,39,65535,0,1880,11
94.87500000,94900000,3,369885166,-1220509300,16190,39,65535,0,1880,11
95.12500000,95150000,3,369885150,-1220509300,16180,39,65535,0,1880,11
95.37500000,95400000,3,369885150,-1220509300,16180,39,65535,0,1880,11
95.62500000,95650000,3,369885150,-1220509300,16180,39,65535,0,1880,11
95.87500000,95900000,3,369885150,-1220509300,16180,39,65535,0,1880,11
96.12500000,96150000,3,369885133,-1220509283,16180,39,65535,0,1880,11
96.37500000,96400000,3,369885133,-1220509283,16180,39,65535,0,1880,11
96.62500000,96650000,3,369885133,-1220509283,16180,39,65535,0,1880,11
96.87500000,96900000,3,369885133,-1220509283,16180,39,65535,0,1880,11
97.12500000,97150000,3,369885133,-1220509266,16180,39,65535,0,1880,11
97.37500000,97400000,3,369885133,-1220509266,16180,39,65535,0,1880,11
97.62500000,97650000,3,369885133,-1220509266,16180,39,65535,0,1880,11
97.87500000,97900000,3,369885116,-1220509266,16180,39,65535,0,1880,11
98.12500000,98150000,3,369885116,-1220509266,16180,39,65535,0,1880,11
98.37500000,98400000,3,369885116,-1220509266,16180,39,65535,0,1880,11
98.62500000,98650000,3,369885116,-1220509266,16190,39,65535,0,1880,11
98.87500000,98900000,3,369885116,-1220509266,16190,39,65535,0,1880,11
99.12500000,99150000,3,369885116,-1220509266,16190,39,65535,0,1880,11
99.37500000,99400000,3,369885116,-1220509266,16190,39,65535,0,1880,11
99.62500000,99650000,3,369885116,-1220509250,16190,39,65535,0,1880,11
99.87500000,99900000,3,369885116,-1220509250,16190,39,65535,0,1880,11
100.12500000,100150000,3,369885116,-1220509250,16190,45,65535,0,1880,10
100.37500000,100400000,3,369885116,-1220509250,16190,39,65535,0,1880,11
100.62500000,100650000,3,369885116,-1220509250,16190,39,65535,0,1880,11
100.87500000,100900000,3,369885116,-1220509250,16190,39,65535,0,1880,11
101.12500000,101150000,3,369885100,-1220509250,16190,39,65535,0,1880,11
101.37500000,101400000,3,369885100,-1220509250,16200,39,65535,0,1880,11
101.62500000,101650000,3,369885100,-1220509250,16200,45,65535,0,1880,10
101.87500000,101900000,3,369885100,-1220509250,16200,39,65535,0,1880,11
102.12500000,102150000,3,369885083,-1220509250,16200,39,65535,0,1880,11
102.37500000,102400000,3,369885083,-1220509250,16200,39,65535,0,1880,11
102.62500000,102650000,3,369885066,-1220509250,16200,45,65535,0,1880,10
102.87500000,102900000,3,369885066,-1220509250,16210,45,65535,0,1880,10
103.12500000,103150000,3,369885066,-1220509250,16210,45,65535,0,1880,10
103.37500000,103400000,3,369885066,-1220509250,16210,39,65535,0,1880,11
103.62500000,103650000,3,369885066,-1220509250,16210,39,65535,0,1880,11
103.87500000,103900000,3,369885050,-1220509250,16210,39,65535,0,1880,11
104.12500000,104150000,3,369885050,-1220509250,16220,44,65535,0,1880,10
104.37500000,104400000,3,369885050,-1220509250,16220,44,65535,0,1880,10
104.62500000,104650000,3,369885050,-1220509250,16220,44,65535,0,1880,10
104.87500000,104900000,3,369885033,-1220509250,16220,44,65535,0,1880,10
105.12500000,105150000,3,369885033,-1220509250,16230,44,65535,0,1880,10
105.37500000,105400000,3,369885033,-1220509250,16230,44,65535,0,1880,10
105.62500000,105650000,3,369885033,-1220509233,16230,39,65535,0,1880,11
105.87500000,105900000,3,369885033,-1220509250,16240,39,65535,0,1880,11
106.12500000,106150000,3,369885033,-1220509250,16260,39,65535,1,1880,11
106.37500000,106400000,3,369885033,-1220509250,16260,39,65535,1,1880,11
106.62500000,106650000,3,369885033,-1220509266,16270,39,65535,2,1880,11
106.87500000,106900000,3,369885033,-1220509250,16270,38,65535,28,1880,11
107.12500000,107150000,3,369885050,-1220509266,16280,39,65535,4,1880,11
107.37500000,107400000,3,369885050,-1220509250,16270,39,65535,2,1880,11
107.62500000,107650000,3,369885050,-1220509250,16270,39,65535,1,1880,11
107.87500000,107900000,3,369885050,-1220509250,16270,39,65535,1,1880,11
108.12500000,108150000,3,369885050,-1220509250,16270,39,65535,1,1880,11
108.37500000,108400000,3,369885050,-1220509250,16270,39,65535,1,1880,11
108.62500000,108650000,3,369885033,-1220509250,16270,39,65535,1,1880,11
108.87500000,108900000,3,369885033,-1220509250,16280,39,65535,1,1880,11
109.12500000,109150000,3,369885033,-1220509250,16290,39,65535,1,1880,11
109.37500000,109400000,3,369885033,-1220509250,16290,39,65535,1,1880,11
109.62500000,109650000,3,369885033,-1220509250,16290,39,65535,1,1880,11
109.87500000,109900000,3,369885033,-1220509250,16300,39,65535,1,1880,11
110.12500000,110150000,3,369885033,-1220509250,16300,39,65535,1,1880,11
110.37500000,110400000,3,369885033,-1220509250,16300,39,65535,2,1880,11
110.62500000,110650000,3,369885033,-1220509250,16300,39,65535,1,1880,11
110.87500000,110900000,3,369885033,-1220509250,16300,39,65535,1,1880,11
111.12500000,111150000,3,369885033,-1220509250,16300,39,65535,0,1880,11
111.37500000,111400000,3,369885033,-1220509250,16300,39,65535,1,1880,11
111.62500000,111650000,3,369885033,-1220509250,16300,39,65535,2,1880,11
111.87500000,111900000,3,369885033,-1220509250,16300,39,65535,0,1880,11
112.12500000,112150000,3,369885033,-1220509250,16300,39,65535,1,1880,11
112.37500000,112400000,3,369885033,-1220509250,16300,39,65535,1,1880,11
112.62500000,112650000,3,369885033,-1220509250,16300,39,65535,0,1880,11
112.87500000,112900000,3,369885033,-1220509250,16300,39,65535,1,1880,11
113.12500000,113150000,3,369885033,-1220509250,16300,39,65535,1,1880,11
113.37500000,113400000,3,369885033,-1220509250,16300,39,65535,2,1880,11
113.62500000,113650000,3,369885033,-1220509250,16300,39,65535,0,1880,11
113.87500000,113900000,3,369885033,-1220509250,16300,39,65535,1,1880,11
114.12500000,114150000,3,369885033,-1220509250,16300,39,65535,1,1880,11
114.37500000,114400000,3,369885033,-1220509250,16300,39,65535,1,1880,11
114.62500000,114650000,3,369885033,-1220509250,16300,39,65535,1,1880,11
114.87500000,114900000,3,369885033,-1220509250,16300,39,65535,1,1880,11
115.12500000,115150000,3,369885033,-1220509250,16300,39,65535,2,1880,11
115.37500000,115400000,3,369885033,-1220509250,16300,39,65535,2,1880,11
115.62500000,115650000,3,369885033,-1220509250,16300,39,65535,1,1880,11
115.87500000,115900000,3,369885033,-1220509250,16300,39,65535,1,1880,11
116.12500000,116150000,3,369885033,-1220509250,16300,39,65535,3,1880,11
116.37500000,116400000,3,369885033,-1220509250,16300,38,65535,8,1880,11
116.62500000,116650000,3,369885033,-1220509250,16300,39,65535,4,1880,11
116.87500000,116900000,3,369885033,-1220509250,16300,39,65535,1,1880,11
117.12500000,117150000,3,369885033,-1220509250,16300,39,65535,2,1880,11
117.37500000,117400000,3,369885033,-1220509250,16300,39,65535,1,1880,11
117.62500000,117650000,3,369885033,-1220509250,16300,39,65535,2,1880,11
117.87500000,117900000,3,369885033,-1220509250,16300,39,65535,3,1880,11
118.12500000,118150000,3,369885033,-1220509250,16300,39,65535,1,1880,11
118.37500000,118400000,3,369885033,-1220509250,16300,39,65535,3,1880,11
118.62500000,118650000,3,369885033,-1220509250,16300,39,65535,2,1880,11
118.87500000,118900000,3,369885033,-1220509250,16300,39,65535,2,1880,11
119.12500000,119150000,3,369885033,-1220509250,16300,39,65535,1,1880,11
119.37500000,119400000,3,369885033,-1220509250,16300,38,65535,10,1880,11
119.62500000,119650000,3,369885033,-1220509250,16300,38,65535,7,1880,11
119.87500000,119900000,3,369885033,-1220509250,16300,39,65535,6,1880,11
120.12500000,120150000,3,369885033,-1220509250,16300,39,65535,4,1880,11
120.37500000,120400000,3,369885033,-1220509233,16290,39,65535,3,1880,11
120.62500000,120650000,3,369885033,-1220509233,16290,39,65535,2,1880,11
120.87500000,120900000,3,369885033,-1220509233,16290,39,65535,1,1880,11
121.12500000,121150000,3,369885033,-1220509233,16300,39,65535,2,1880,11
121.37500000,121400000,3,369885033,-1220509233,16310,39,65535,2,1880,11
121.62500000,121650000,3,369885033,-1220509233,16320,39,65535,2,1880,11
121.87500000,121900000,3,369885050,-1220509233,16320,38,65535,3,1880,11
122.12500000,122150000,3,369885033,-1220509233,16320,38,65535,4,1880,11
122.37500000,122400000,3,369885033,-1220509233,16310,39,65535,4,1880,11
122.62500000,122650000,3,369885033,-1220509216,16310,39,65535,5,1880,11
122.87500000,122900000,3,369885033,-1220509216,16310,38,65535,2,1880,11
123.12500000,123150000,3,369885033,-1220509216,16310,38,65535,3,1880,11
123.37500000,123400000,3,369885033,-1220509216,16310,39,65535,6,1880,11
123.62500000,123650000,3,369885033,-1220509216,16310,39,65535,1,1880,11
123.87500000,123900000,3,369885033,-1220509216,16320,39,65535,1,1880,11
124.12500000,124150000,3,369885033,-1220509216,16310,39,65535,3,1880,11
124.37500000,124400000,3,369885033,-1220509216,16310,38,65535,15,1880,11
124.62500000,124650000,3,369885033,-1220509216,16310,38,65535,22,1880,11
124.87500000,124900000,3,369885033,-1220509216,16310,38,65535,12,1880,11
125.12500000,125150000,3,369885033,-1220509216,16310,38,65535,7,1880,11
125.37500000,125400000,3,369885033,-1220509200,16310,38,65535,6,1880,11
125.62500000,125650000,3,369885033,-1220509200,16310,38,65535,5,1880,11
125.87500000,125900000,3,369885033,-1220509200,16310,39,65535,2,1880,11
126.12500000,126150000,3,369885033,-1220509200,16310,39,65535,0,1880,11
126.37500000,126400000,3,369885033,-1220509200,16310,39,65535,0,1880,11
126.62500000,126650000,3,369885033,-1220509200,16310,39,65535,1,1880,11
126.87500000,126900000,3,369885033,-1220509200,16310,39,65535,2,1880,11
127.12500000,127150000,3,369885033,-1220509216,16310,44,65535,1,1880,10
127.37500000,127400000,3,369885033,-1220509216,16310,44,65535,0,1880,10
127.62500000,127650000,3,369885033,-1220509216,16310,39,65535,2,1880,11
127.87500000,127900000,3,369885033,-1220509200,16310,39,65535,3,1880,11
128.12500000,128150000,3,369885033,-1220509200,16310,39,65535,2,1880,11
128.37500000,128400000,3,369885033,-1220509200,16310,44,65535,2,1880,10
128.62500000,128650000,3,369885033,-1220509200,16310,44,65535,2,1880,10
128.87500000,128900000,3,369885033,-1220509200,16310,44,65535,0,1880,10
129.12500000,129150000,3,369885033,-1220509200,16310,44,65535,0,1880,10
129.37500000,129400000,3,369885033,-1220509200,16310,44,65535,0,1880,10
129.62500000,129650000,3,369885033,-1220509200,16310,39,65535,0,1880,11
129.87500000,129900000,3,369885033,-1220509200,16310,39,65535,0,1880,11
130.12500000,130150000,3,369885033,-1220509200,16310,39,65535,0,1880,11
130.37500000,130400000,3,369885033,-1220509200,16310,39,65535,0,1880,11
130.62500000,130650000,3,369885033,-1220509200,16310,39,65535,0,1880,11
130.87500000,130900000,3,369885033,-1220509200,16310,39,65535,1,1880,11
131.12500000,131150000,3,369885033,-1220509200,16310,39,65535,1,1880,11
131.37500000,131400000,3,369885033,-1220509200,16310,38,65535,17,1880,11
131.62500000,131650000,3,369885033,-1220509200,16310,38,65535,3,1880,11
131.87500000,131900000,3,369885033,-1220509200,16320,39,65535,4,1880,11
132.12500000,132150000,3,369885033,-1220509200,16310,39,65535,2,1880,11
132.37500000,132400000,3,369885033,-1220509200,16310,39,65535,1,1880,11
132.62500000,132650000,3,369885033,-1220509200,16320,39,65535,4,1880,11
132.87500000,132900000,3,369885016,-1220509200,16320,38,65535,4,1880,11
133.12500000,133150000,3,369885016,-1220509200,16310,38,65535,4,1880,11
133.37500000,133400000,3,369885016,-1220509200,16310,38,65535,4,1880,11
133.62500000,133650000,3,369885016,-1220509216,16310,38,65535,3,1880,11
133.87500000,133900000,3,369885016,-1220509216,16310,39,65535,1,1880,11
134.12500000,134150000,3,369885016,-1220509200,16310,45,65535,1,1880,10
134.37500000,134400000,3,369885016,-1220509200,16320,45,65535,1,1880,10
134.62500000,134650000,3,369885016,-1220509200,16320,45,65535,0,1880,10
134.87500000,134900000,3,369885033,-1220509200,16330,45,65535,0,1880,10
135.12500000,135150000,3,369885033,-1220509200,16330,45,65535,0,1880,10
135.37500000,135400000,3,369885033,-1220509183,16330,45,65535,0,1880,10
135.62500000,135650000,3,369885033,-1220509183,16330,45,65535,0,1880,10
135.87500000,135900000,3,369885033,-1220509166,16340,45,65535,0,1880,10
136.12500000,136150000,3,369885033,-1220509183,16340,45,65535,0,1880,10
136.37500000,136400000,3,369885033,-1220509183,16350,45,65535,0,1880,10
136.62500000,136650000,3,369885033,-1220509183,16350,45,65535,0,1880,10
136.87500000,136900000,3,369885033,-1220509183,16350,45,65535,1,1880,10
137.12500000,137150000,3,369885033,-1220509183,16350,45,65535,0,1880,10
137.37500000,137400000,3,369885033,-1220509183,16350,45,65535,0,1880,10
137.62500000,137650000,3,369885033,-1220509183,16350,45,65535,0,1880,10
137.87500000,137900000,3,369885033,-1220509183,16350,45,65535,0,1880,10
138.12500000,138150000,3,369885033,-1220509183,16350,39,65535,0,1880,11
138.37500000,138400000,3,369885033,-1220509183,16350,39,65535,0,1880,11
138.62500000,138650000,3,369885033,-1220509183,16350,39,65535,0,1880,11
138.87500000,138900000,3,369885033,-1220509183,16350,39,65535,0,1880,11
139.12500000,139150000,3,369885033,-1220509183,16350,39,65535,1,1880,11
139.37500000,139400000,3,369885033,-1220509183,16350,39,65535,0,1880,11
139.62500000,139650000,3,369885033,-1220509183,16350,45,65535,0,1880,10
139.87500000,139900000,3,369885033,-1220509183,16350,45,65535,0,1880,10
140.12500000,140150000,3,369885033,-1220509183,16350,45,65535,0,1880,10
140.37500000,140400000,3,369885033,-1220509183,16350,45,65535,0,1880,10
140.62500000,140650000,3,369885033,-1220509183,16350,45,65535,0,1880,10
140.87500000,140900000,3,369885033,-1220509183,16350,45,65535,0,1880,10
141.12500000,141150000,3,369885033,-1220509183,16350,45,65535,0,1880,10
141.37500000,141400000,3,369885033,-1220509183,16350,45,65535,0,1880,10
141.62500000,141650000,3,369885033,-1220509183,16350,45,65535,0,1880,10
141.87500000,141900000,3,369885033,-1220509183,16350,45,65535,0,1880,10
142.12500000,142150000,3,369885033,-1220509183,16350,39,65535,0,1880,11
142.37500000,142400000,3,369885033,-1220509183,16350,39,65535,0,1880,11
142.62500000,142650000,3,369885033,-1220509166,16350,39,65535,0,1880,11
142.87500000,142900000,3,369885033,-1220509166,16350,39,65535,0,1880,11
143.12500000,143150000,3,369885033,-1220509166,16350,39,65535,0,1880,11
143.37500000,143400000,3,369885033,-1220509166,16350,39,65535,0,1880,11
143.62500000,143650000,3,369885033,-1220509166,16350,39,65535,0,1880,11
143.87500000,143900000,3,369885033,-1220509166,16350,39,65535,1,1880,11
144.12500000,144150000,3,369885033,-1220509166,16350,39,65535,0,1880,11
144.37500000,144400000,3,369885033,-1220509166,16350,39,65535,0,1880,11
144.62500000,144650000,3,369885033,-1220509166,16350,38,65535,1,1880,11
144.87500000,144900000,3,369885016,-1220509150,16350,39,65535,1,1880,11
145.12500000,145150000,3,369885016,-1220509133,16350,43,65535,1,1880,11
145.37500000,145400000,3,369885016,-1220509133,16350,43,65535,1,1880,10
145.62500000,145650000,3,369885000,-1220509133,16350,43,65535,1,1880,10
145.87500000,145900000,3,369885000,-1220509116,16350,43,65535,0,1880,10
146.12500000,146150000,3,369885000,-1220509100,16340,43,65535,0,1880,10
146.37500000,146400000,3,369884983,-1220509100,16340,45,65535,0,1880,10
146.62500000,146650000,3,369884983,-1220509083,16340,45,65535,0,1880,9
146.87500000,146900000,3,369884983,-1220509066,16330,41,65535,0,1880,10
147.12500000,147150000,3,369884966,-1220509066,16330,41,65535,0,1880,10
147.37500000,147400000,3,369884966,-1220509066,16330,41,65535,0,1880,10
147.62500000,147650000,3,369884966,-1220509066,16330,41,65535,0,1880,10
147.87500000,147900000,3,369884966,-1220509050,16330,41,65535,0,1880,10
148.12500000,148150000,3,369884966,-1220509050,16330,41,65535,0,1880,10
148.37500000,148400000,3,369884966,-1220509050,16330,45,65535,0,1880,10
148.62500000,148650000,3,369884966,-1220509050,16330,45,65535,0,1880,10
148.87500000,148900000,3,369884966,-1220509050,16330,45,65535,0,1880,10
149.12500000,149150000,3,369884966,-1220509050,16330,45,65535,0,1880,10
149.37500000,149400000,3,369884966,-1220509050,16330,45,65535,0,1880,10
149.62500000,149650000,3,369884966,-1220509050,16330,45,65535,0,1880,10
149.87500000,149900000,3,369884966,-1220509050,16330,45,65535,0,1880,10
150.12500000,150150000,3,369884966,-1220509050,16330,45,65535,0,1880,10
150.37500000,150400000,3,369884966,-1220509050,16330,45,65535,0,1880,10
150.62500000,150650000,3,369884966,-1220509050,16330,45,65535,0,1880,10
150.87500000,150900000,3,369884966,-1220509050,16330,45,65535,0,1880,10
151.12500000,151150000,3,369884966,-1220509050,16330,45,65535,0,1880,10
151.37500000,151400000,3,369884966,-1220509050,16330,45,65535,0,1880,10
151.62500000,151650000,3,369884966,-1220509050,16330,45,65535,0,1880,10
151.87500000,151900000,3,369884966,-1220509050,16330,45,65535,0,1880,10
152.12500000,152150000,3,369884966,-1220509050,16330,45,65535,0,1880,10
152.37500000,152400000,3,369884966,-1220509050,16330,45,65535,0,1880,10
152.62500000,152650000,3,369884966,-1220509050,16330,45,65535,0,1880,10
152.87500000,152900000,3,369884966,-1220509050,16330,45,65535,0,1880,10
153.12500000,153150000,3,369884966,-1220509050,16330,45,65535,0,1880,10
153.37500000,153400000,3,369884966,-1220509050,16330,45,65535,0,1880,10
153.62500000,153650000,3,369884966,-1220509050,16330,45,65535,0,1880,10
153.87500000,153900000,3,369884966,-1220509050,16330,45,65535,0,1880,10
154.12500000,154150000,3,369884966,-1220509050,16330,45,65535,0,1880,10
154.37500000,154400000,3,369884966,-1220509050,16330,45,65535,0,1880,10
154.62500000,154650000,3,369884966,-1220509050,16330,45,65535,0,1880,10
154.87500000,154900000,3,369884966,-1220509050,16330,45,65535,0,1880,10
155.12500000,155150000,3,369884966,-1220509050,16330,45,65535,0,1880,10
155.37500000,155400000,3,369884966,-1220509050,16330,45,65535,0,1880,10
155.62500000,155650000,3,369884966,-1220509050,16330,45,65535,0,1880,10
155.87500000,155900000,3,369884966,-1220509050,16330,45,65535,0,1880,10
156.12500000,156150000,3,369884966,-1220509050,16330,45,65535,0,1880,10
156.37500000,156400000,3,369884950,-1220509050,16330,45,65535,0,1880,10
156.62500000,156650000,3,369884950,-1220509050,16330,39,65535,0,1880,11
156.87500000,156900000,3,369884950,-1220509050,16330,39,65535,0,1880,11
157.12500000,157150000,3,369884950,-1220509050,16330,39,65535,0,1880,11
157.37500000,157400000,3,369884950,-1220509050,16330,39,65535,0,1880,11
157.62500000,157650000,3,369884950,-1220509050,16330,39,65535,0,1880,11
157.87500000,157900000,3,369884950,-1220509050,16330,39,65535,0,1880,11
158.12500000,158150000,3,369884950,-1220509050,16330,39,65535,0,1880,11
158.37500000,158400000,3,369884950,-1220509050,16330,39,65535,0,1880,11
158.62500000,158650000,3,369884950,-1220509050,16330,39,65535,0,1880,11
158.87500000,158900000,3,369884950,-1220509050,16330,39,65535,0,1880,11
159.12500000,159150000,3,369884950,-1220509050,16330,39,65535,0,1880,11
159.37500000,159400000,3,369884950,-1220509050,16330,39,65535,0,1880,11
159.62500000,159650000,3,369884950,-1220509050,16330,39,65535,0,1880,11
159.87500000,159900000,3,369884950,-1220509050,16330,39,65535,0,1880,11
160.12500000,160150000,3,369884950,-1220509050,16330,39,65535,0,1880,11
160.37500000,160400000,3,369884950,-1220509050,16330,39,65535,0,1880,11
160.62500000,160650000,3,369884950,-1220509050,16330,39,65535,0,1880,11
160.87500000,160900000,3,369884950,-1220509050,16330,39,65535,0,1880,11
161.12500000,161150000,3,369884950,-1220509050,16330,39,65535,0,1880,11
161.37500000,161400000,3,369884950,-1220509050,16330,39,65535,0,1880,11
161.62500000,161650000,3,369884950,-1220509050,16330,39,65535,0,1880,11
161.87500000,161900000,3,369884950,-1220509050,16330,39,65535,0,1880,11
162.12500000,162150000,3,369884950,-1220509050,16330,39,65535,3,1880,11
162.37500000,162400000,3,369884950,-1220509050,16330,39,65535,2,1880,11
162.62500000,162650000,3,369884950,-1220509033,16330,39,65535,4,1880,11
162.87500000,162900000,3,369884950,-1220509033,16330,39,65535,3,1880,11
163.12500000,163150000,3,369884950,-1220509050,16330,39,65535,3,1880,11
163.37500000,163400000,3,369884950,-1220509050,16330,39,65535,3,1880,11
163.62500000,163650000,3,369884966,-1220509083,16330,39,65535,2,1880,11
163.87500000,163900000,3,369884966,-1220509083,16330,39,65535,1,1880,11
164.12500000,164150000,3,369884966,-1220509083,16330,39,65535,1,1880,11
164.37500000,164400000,3,369884966,-1220509083,16330,39,65535,0,1880,11
164.62500000,164650000,3,369884966,-1220509083,16330,39,65535,0,1880,11
164.87500000,164900000,3,369884966,-1220509083,16330,39,65535,0,1880,11
165.12500000,165150000,3,369884950,-1220509083,16330,39,65535,0,1880,11
165.37500000,165400000,3,369884950,-1220509083,16330,39,65535,0,1880,11
165.62500000,165650000,3,369884950,-1220509083,16330,39,65535,0,1880,11
165.87500000,165900000,3,369884950,-1220509083,16330,39,65535,0,1880,11
166.12500000,166150000,3,369884950,-1220509083,16340,39,65535,0,1880,11
166.37500000,166400000,3,369884950,-1220509083,16340,39,65535,0,1880,11
166.62500000,166650000,3,369884950,-1220509083,16340,39,65535,0,1880,11
166.87500000,166900000,3,369884950,-1220509083,16340,39,65535,0,1880,11
167.12500000,167150000,3,369884950,-1220509083,16340,39,65535,0,1880,11
167.37500000,167400000,3,369884950,-1220509083,16340,39,65535,0,1880,11
167.62500000,167650000,3,369884950,-1220509083,16340,39,65535,0,1880,11
167.87500000,167900000,3,369884950,-1220509083,16340,39,65535,0,1880,11
168.12500000,168150000,3,369884950,-1220509083,16340,39,65535,0,1880,11
168.37500000,168400000,3,369884950,-1220509083,16340,39,65535,0,1880,11
168.62500000,168650000,3,369884950,-1220509083,16340,39,65535,0,1880,11
168.87500000,168900000,3,369884950,-1220509083,16340,39,65535,0,1880,11
169.12500000,169150000,3,369884950,-1220509083,16340,39,65535,0,1880,11
169.37500000,169400000,3,369884950,-1220509083,16340,39,65535,0,1880,11
169.62500000,169650000,3,369884950,-1220509083,16340,39,65535,0,1880,11
169.87500000,169900000,3,369884950,-1220509083,16340,39,65535,0,1880,11
170.12500000,170150000,3,369884950,-1220509083,16340,39,65535,0,1880,11
170.37500000,170400000,3,369884950,-1220509083,16340,39,65535,0,1880,11
170.62500000,170650000,3,369884950,-1220509083,16340,39,65535,0,1880,11
170.87500000,170900000,3,369884950,-1220509083,16340,39,65535,0,1880,11
171.12500000,171150000,3,369884950,-1220509083,16340,39,65535,0,1880,11
171.37500000,171400000,3,369884950,-1220509083,16340,39,65535,0,1880,11
171.62500000,171650000,3,369884950,-1220509083,16340,39,65535,0,1880,11
171.87500000,171900000,3,369884950,-1220509083,16340,39,65535,0,1880,11
172.12500000,172150000,3,369884950,-1220509083,16340,39,65535,0,1880,11
172.37500000,172400000,3,369884950,-1220509083,16340,39,65535,0,1880,11
172.62500000,172650000,3,369884950,-1220509083,16340,39,65535,0,1880,11
172.87500000,172900000,3,369884950,-1220509083,16340,39,65535,0,1880,11
173.12500000,173150000,3,369884950,-1220509083,16340,39,65535,0,1880,11
173.37500000,173400000,3,369884950,-1220509083,16340,39,65535,0,1880,11
173.62500000,173650000,3,369884950,-1220509083,16340,39,65535,0,1880,11
173.87500000,173900000,3,369884950,-1220509083,16340,39,65535,0,1880,11
174.12500000,174150000,3,369884950,-1220509083,16340,39,65535,0,1880,11
174.37500000,174400000,3,369884950,-1220509083,16340,39,65535,0,1880,11
174.62500000,174650000,3,369884950,-1220509083,16340,39,65535,0,1880,11
174.87500000,174900000,3,369884950,-1220509083,16340,39,65535,0,1880,11
175.12500000,175150000,3,369884950,-1220509083,16340,39,65535,0,1880,11
175.37500000,175400000,3,369884933,-1220509083,16340,39,65535,0,1880,11
175.62500000,175650000,3,369884933,-1220509083,16340,39,65535,0,1880,11
175.87500000,175900000,3,369884933,-1220509083,16340,39,65535,0,1880,11
176.12500000,176150000,3,369884933,-1220509083,16340,39,65535,0,1880,11
176.37500000,176400000,3,369884933,-1220509083,16340,39,65535,0,1880,11
176.62500000,176650000,3,369884933,-1220509083,16340,39,65535,0,1880,11
176.87500000,176900000,3,369884933,-1220509083,16340,39,65535,0,1880,11
177.12500000,177150000,3,369884933,-1220509083,16340,41,65535,0,1880,10
177.37500000,177400000,3,369884933,-1220509083,16340,39,65535,0,1880,11
177.62500000,177650000,3,369884933,-1220509083,16340,41,65535,0,1880,10
177.87500000,177900000,3,369884933,-1220509083,16340,41,65535,0,1880,10
178.12500000,178150000,3,369884933,-1220509083,16340,39,65535,0,1880,11
178.37500000,178400000,3,369884933,-1220509083,16340,39,65535,0,1880,11
178.62500000,178650000,3,369884933,-1220509083,16340,39,65535,0,1880,11
178.87500000,178900000,3,369884933,-1220509083,16340,39,65535,0,1880,11
179.12500000,179150000,3,369884933,-1220509083,16340,39,65535,0,1880,11
179.37500000,179400000,3,369884933,-1220509083,16340,39,65535,0,1880,11
179.62500000,179650000,3,369884933,-1220509083,16340,39,65535,0,1880,11
179.87500000,179900000,3,369884933,-1220509083,16340,39,65535,0,1880,11
180.12500000,180150000,3,369884933,-1220509083,16340,39,65535,0,1880,11
180.37500000,180400000,3,369884933,-1220509083,16340,39,65535,0,1880,11
180.62500000,180650000,3,369884933,-1220509083,16340,39,65535,0,1880,11
180.87500000,180900000,3,369884933,-1220509083,16340,39,65535,0,1880,11
181.12500000,181150000,3,369884933,-1220509083,16340,39,65535,0,1880,11
181.37500000,181400000,3,369884933,-1220509083,16340,39,65535,0,1880,11
181.62500000,181650000,3,369884933,-1220509083,16340,39,65535,0,1880,11
181.87500000,181900000,3,369884933,-1220509083,16340,39,65535,0,1880,11
182.12500000,182150000,3,369884933,-1220509083,16340,39,65535,0,1880,11
182.37500000,182400000,3,369884933,-1220509083,16350,39,65535,0,1880,11
182.62500000,182650000,3,369884933,-1220509083,16350,39,65535,0,1880,11
182.87500000,182900000,3,369884933,-1220509083,16350,39,65535,0,1880,11
183.12500000,183150000,3,369884933,-1220509083,16350,39,65535,0,1880,11
183.37500000,183400000,3,369884933,-1220509083,16350,39,65535,0,1880,11
183.62500000,183650000,3,369884933,-1220509083,16350,39,65535,0,1880,11
183.87500000,183900000,3,369884933,-1220509083,16350,39,65535,0,1880,11
184.12500000,184150000,3,369884933,-1220509083,16350,39,65535,0,1880,11
184.37500000,184400000,3,369884933,-1220509083,16350,39,65535,0,1880,11
184.62500000,184650000,3,369884933,-1220509083,16350,39,65535,0,1880,11
184.87500000,184900000,3,369884933,-1220509083,16350,39,65535,0,1880,11
185.12500000,185150000,3,369884933,-1220509083,16350,39,65535,0,1880,11
185.37500000,185400000,3,369884933,-1220509083,16350,39,65535,1,1880,11
185.62500000,185650000,3,369884933,-1220509083,16350,39,65535,0,1880,11
185.87500000,185900000,3,369884933,-1220509083,16350,39,65535,0,1880,11
186.12500000,186150000,3,369884933,-1220509083,16350,39,65535,0,1880,11
186.37500000,186400000,3,369884933,-1220509083,16350,39,65535,0,1880,11
186.62500000,186650000,3,369884933,-1220509083,16350,39,65535,0,1880,11
186.87500000,186900000,3,369884933,-1220509083,16350,39,65535,0,1880,11
187.12500000,187150000,3,369884933,-1220509083,16350,39,65535,0,1880,11
187.37500000,187400000,3,369884933,-1220509083,16350,39,65535,0,1880,11
187.62500000,187650000,3,369884933,-1220509083,16350,39,65535,1,1880,11
187.87500000,187900000,3,369884933,-1220509083,16350,39,65535,0,1880,11
188.12500000,188150000,3,369884933,-1220509083,16350,39,65535,1,1880,11
188.37500000,188400000,3,369884933,-1220509083,16350,39,65535,0,1880,11
188.62500000,188650000,3,369884933,-1220509083,16350,39,65535,0,1880,11
188.87500000,188900000,3,369884933,-1220509083,16350,39,65535,0,1880,11
189.12500000,189150000,3,369884933,-1220509083,16350,39,65535,0,1880,11
189.37500000,189400000,3,369884933,-1220509083,16350,39,65535,0,1880,11
189.62500000,189650000,3,369884933,-1220509083,16350,39,65535,0,1880,11
189.87500000,189900000,3,369884933,-1220509083,16350,39,65535,1,1880,11
190.12500000,190150000,3,369884933,-1220509083,16350,39,65535,0,1880,11
190.37500000,190400000,3,369884933,-1220509083,16350,39,65535,0,1880,11
190.62500000,190650000,3,369884933,-1220509083,16350,39,65535,0,1880,11
190.87500000,190900000,3,369884933,-1220509083,16350,39,65535,0,1880,11
191.12500000,191150000,3,369884933,-1220509083,16350,39,65535,0,1880,11
191.37500000,191400000,3,369884933,-1220509083,16350,39,65535,0,1880,11
191.62500000,191650000,3,369884933,-1220509083,16350,41,65535,0,1880,10
191.87500000,191900000,3,369884933,-1220509083,16350,41,65535,0,1880,10
192.12500000,192150000,3,369884933,-1220509083,16350,41,65535,0,1880,10
192.37500000,192400000,3,369884933,-1220509083,16350,39,65535,0,1880,11
192.62500000,192650000,3,369884933,-1220509083,16350,39,65535,0,1880,11
192.87500000,192900000,3,369884933,-1220509083,16350,39,65535,0,1880,11
193.12500000,193150000,3,369884933,-1220509083,16350,39,65535,0,1880,11
193.37500000,193400000,3,369884933,-1220509083,16350,39,65535,0,1880,11
193.62500000,193650000,3,369884933,-1220509083,16350,39,65535,0,1880,11
193.87500000,193900000,3,369884933,-1220509083,16350,39,65535,0,1880,11
194.12500000,194150000,3,369884933,-1220509083,16350,39,65535,0,1880,11
194.37500000,194400000,3,369884933,-1220509083,16350,39,65535,0,1880,11
194.62500000,194650000,3,369884933,-1220509083,16350,39,65535,0,1880,11
194.87500000,194900000,3,369884933,-1220509083,16350,39,65535,0,1880,11
195.12500000,195150000,3,369884933,-1220509083,16350,39,65535,0,1880,11
195.37500000,195400000,3,369884933,-1220509083,16350,39,65535,0,1880,11
195.62500000,195650000,3,369884933,-1220509083,16350,39,65535,0,1880,11
195.87500000,195900000,3,369884933,-1220509083,16350,39,65535,0,1880,11
196.12500000,196150000,3,369884933,-1220509083,16350,39,65535,0,1880,11
196.37500000,196400000,3,369884933,-1220509083,16350,39,65535,0,1880,11
196.62500000,196650000,3,369884933,-1220509083,16350,39,65535,0,1880,11
196.87500000,196900000,3,369884933,-1220509083,16350,39,65535,0,1880,11
197.12500000,197150000,3,369884933,-1220509083,16350,39,65535,0,1880,11
197.37500000,197400000,3,369884933,-1220509083,16350,39,65535,0,1880,11
197.62500000,197650000,3,369884933,-1220509083,16350,39,65535,0,1880,11
197.87500000,197900000,3,369884933,-1220509083,16350,39,65535,0,1880,11
198.12500000,198150000,3,369884933,-1220509083,16350,39,65535,0,1880,11
198.37500000,198400000,3,369884933,-1220509083,16350,39,65535,0,1880,11
198.62500000,198650000,3,369884933,-1220509083,16350,39,65535,0,1880,11
198.87500000,198900000,3,369884933,-1220509083,16350,39,65535,0,1880,11
199.12500000,199150000,3,369884933,-1220509083,16350,39,65535,0,1880,11
199.37500000,199400000,3,369884933,-1220509083,16360,41,65535,0,1880,10
199.62500000,199650000,3,369884933,-1220509083,16360,41,65535,0,1880,10
199.87500000,199900000,3,369884933,-1220509083,16360,39,65535,0,1880,11
200.12500000,200150000,3,369884933,-1220509083,16360,39,65535,0,1880,11
200.37500000,200400000,3,369884933,-1220509083,16360,39,65535,0,1880,11
200.62500000,200650000,3,369884933,-1220509083,16360,39,65535,0,1880,11
200.87500000,200900000,3,369884933,-1220509083,16360,39,65535,0,1880,11
201.12500000,201150000,3,369884933,-1220509083,16360,39,65535,0,1880,11
201.37500000,201400000,3,369884933,-1220509083,16360,39,65535,0,1880,11
201.62500000,201650000,3,369884933,-1220509083,16360,39,65535,0,1880,11
201.87500000,201900000,3,369884933,-1220509083,16360,39,65535,0,1880,11
202.12500000,202150000,3,369884933,-1220509083,16360,39,65535,0,1880,11
202.37500000,202400000,3,369884933,-1220509083,16360,39,65535,0,1880,11
202.62500000,202650000,3,369884933,-1220509083,16360,39,65535,0,1880,11
202.87500000,202900000,3,369884933,-1220509083,16360,41,65535,0,1880,10
203.12500000,203150000,3,369884933,-1220509083,16360,41,65535,0,1880,10
203.37500000,203400000,3,369884933,-1220509083,16360,41,65535,0,1880,10
203.62500000,203650000,3,369884933,-1220509083,16360,41,65535,0,1880,10
203.87500000,203900000,3,369884933,-1220509083,16360,41,65535,0,1880,10
204.12500000,204150000,3,369884933,-1220509083,16360,41,65535,0,1880,10
204.37500000,204400000,3,369884933,-1220509083,16360,41,65535,0,1880,10
204.62500000,204650000,3,369884933,-1220509083,16360,41,65535,0,1880,10
204.87500000,204900000,3,369884933,-1220509083,16360,39,65535,0,1880,11
205.12500000,205150000,3,369884933,-1220509083,16360,39,65535,0,1880,11
205.37500000,205400000,3,369884933,-1220509083,16360,39,65535,0,1880,11
205.62500000,205650000,3,369884933,-1220509083,16360,39,65535,0,1880,11
205.87500000,205900000,3,369884933,-1220509083,16360,39,65535,0,1880,11
206.12500000,206150000,3,369884933,-1220509083,16360,39,65535,0,1880,11
206.37500000,206400000,3,369884933,-1220509083,16360,39,65535,0,1880,11
206.62500000,206650000,3,369884933,-1220509083,16360,39,65535,0,1880,11
206.87500000,206900000,3,369884933,-1220509083,16360,39,65535,0,1880,11
207.12500000,207150000,3,369884933,-1220509083,16360,39,65535,0,1880,11
207.37500000,207400000,3,369884933,-1220509083,16360,39,65535,0,1880,11
207.62500000,207650000,3,369884933,-1220509083,16360,39,65535,0,1880,11
207.87500000,207900000,3,369884933,-1220509083,16360,39,65535,0,1880,11
208.12500000,208150000,3,369884933,-1220509083,16360,39,65535,0,1880,11
208.37500000,208400000,3,369884933,-1220509083,16360,39,65535,0,1880,11
208.62500000,208650000,3,369884933,-1220509083,16360,39,65535,0,1880,11
208.87500000,208900000,3,369884933,-1220509083,16360,39,65535,0,1880,11
209.12500000,209150000,3,369884933,-1220509083,16360,39,65535,0,1880,11
209.37500000,209400000,3,369884933,-1220509083,16360,39,65535,0,1880,11
209.62500000,209650000,3,369884933,-1220509083,16360,39,65535,0,1880,11
209.87500000,209900000,3,369884933,-1220509083,16360,39,65535,0,1880,11
210.12500000,210150000,3,369884933,-1220509083,16360,39,65535,0,1880,11
210.37500000,210400000,3,369884933,-1220509083,16370,39,65535,0,1880,11
210.62500000,210650000,3,369884933,-1220509083,16370,39,65535,0,1880,11
210.87500000,210900000,3,369884933,-1220509083,16370,39,65535,0,1880,11
211.12500000,211150000,3,369884933,-1220509083,16370,39,65535,0,1880,11
211.37500000,211400000,3,369884933,-1220509083,16370,39,65535,0,1880,11
211.62500000,211650000,3,369884933,-1220509083,16370,39,65535,0,1880,11
211.87500000,211900000,3,369884933,-1220509083,16370,39,65535,0,1880,11
212.12500000,212150000,3,369884933,-1220509083,16370,39,65535,0,1880,11
212.37500000,212400000,3,369884933,-1220509083,16370,39,65535,0,1880,11
212.62500000,212650000,3,369884933,-1220509083,16370,39,65535,0,1880,11
212.87500000,212900000,3,369884933,-1220509083,16370,39,65535,0,1880,11
213.12500000,213150000,3,369884933,-1220509083,16370,39,65535,0,1880,11
213.37500000,213400000,3,369884933,-1220509083,16370,39,65535,0,1880,11
213.62500000,213650000,3,369884933,-1220509083,16370,39,65535,0,1880,11
213.87500000,213900000,3,369884933,-1220509083,16370,39,65535,0,1880,11
214.12500000,214150000,3,369884933,-1220509083,16370,39,65535,0,1880,11
214.37500000,214400000,3,369884933,-1220509083,16370,39,65535,0,1880,11
214.62500000,214650000,3,369884933,-1220509083,16370,39,65535,0,1880,11
214.87500000,214900000,3,369884933,-1220509083,16370,39,65535,0,1880,11
215.12500000,215150000,3,369884933,-1220509083,16370,39,65535,0,1880,11
215.37500000,215400000,3,369884933,-1220509083,16370,39,65535,0,1880,11
215.62500000,215650000,3,369884933,-1220509083,16370,39,65535,0,1880,11
